,station_id,name,short_name,latitude,longitude,region_id,rental_methods,capacity,eightd_has_key_dispenser,num_bikes_available,num_bikes_disabled,num_docks_available,num_docks_disabled,is_installed,is_renting,is_returning,eightd_has_available_keys,last_reported
0,536,1 Ave & E 30 St,6079.03,40.74144387,-73.97536082,71,"CREDITCARD, KEY",7,False,6,1,0,0,False,False,False,False,2022-02-04 08:44:14+00:00
1,3184,Paulus Hook,JC002,40.7141454,-74.0335519,70,"CREDITCARD, KEY",14,False,12,0,2,0,False,False,False,False,2022-02-05 22:55:33+00:00
2,3268,Lafayette Park,JC078,40.71346382669195,-74.06285852193832,70,"CREDITCARD, KEY",14,False,12,0,2,0,False,False,False,False,2022-02-05 22:58:08+00:00
3,4655,Hudson St & 4 St,HB607,40.74097260864355,-74.02860336005688,311,"CREDITCARD, KEY",14,False,11,0,3,0,False,False,False,False,2022-02-05 23:18:16+00:00
4,3270,Jersey & 6th St,JC027,40.72528910781132,-74.04557168483734,70,"CREDITCARD, KEY",14,False,10,0,4,0,False,False,False,False,2022-02-05 23:09:29+00:00
5,3483,Montgomery St,JC099,40.71942,-74.05099,70,"CREDITCARD, KEY",14,False,9,0,5,0,False,False,False,False,2022-02-05 22:52:16+00:00
6,3275,Columbus Drive,JC014,40.71835519823214,-74.03891444206238,70,"CREDITCARD, KEY",14,False,8,0,6,0,False,False,False,False,2022-02-05 22:24:36+00:00
7,4522,Bloomfield St & 15 St,HB203,40.75453,-74.02658,311,"CREDITCARD, KEY",14,False,8,0,6,0,False,False,False,False,2022-02-05 23:38:08+00:00
8,3278,Monmouth and 6th,JC075,40.72568548362901,-74.04879033565521,70,"CREDITCARD, KEY",14,False,7,0,7,0,False,False,False,False,2022-02-05 23:25:03+00:00
9,3280,Astor Place,JC077,40.71928220070702,-74.07126188278198,70,"CREDITCARD, KEY",14,False,6,0,8,0,False,False,False,False,2022-02-05 22:54:54+00:00
10,3225,Baldwin at Montgomery,JC020,40.7236589,-74.0641943,70,"CREDITCARD, KEY",14,False,4,1,9,0,False,False,False,False,2022-02-05 23:43:51+00:00
11,3267,Morris Canal,JC072,40.7124188237569,-74.03852552175522,70,"CREDITCARD, KEY",14,False,4,0,9,1,False,False,False,False,2022-02-05 22:52:08+00:00
12,3269,Brunswick & 6th,JC081,40.72601172964625,-74.05038893222809,70,"CREDITCARD, KEY",14,False,5,0,9,0,False,False,False,False,2022-02-05 20:45:24+00:00
13,3281,Leonard Gordon Park,JC080,40.74590996631558,-74.0572714805603,70,"CREDITCARD, KEY",14,False,5,0,9,0,False,False,False,False,2022-02-05 23:33:31+00:00
14,3272,Jersey & 3rd,JC074,40.72333158646436,-74.04595255851744,70,"CREDITCARD, KEY",14,False,4,0,10,0,False,False,False,False,2022-02-05 23:08:16+00:00
15,3277,Communipaw & Berry Lane,JC084,40.71435836870427,-74.06661093235016,70,"CREDITCARD, KEY",14,False,4,0,10,0,False,False,False,False,2022-02-05 17:47:33+00:00
16,4656,Clinton St & Newark St,HB409,40.73743,-74.03571,311,"CREDITCARD, KEY",14,False,4,0,10,0,False,False,False,False,2022-02-05 22:38:00+00:00
17,3199,Newport Pkwy,JC008,40.7287448,-74.0321082,70,"CREDITCARD, KEY",14,False,1,1,12,0,False,False,False,False,2022-02-05 23:39:37+00:00
18,3679,Bergen Ave,JC095,40.722103786686034,-74.07145500183105,70,"CREDITCARD, KEY",14,False,1,0,13,0,False,False,False,False,2022-02-05 23:14:35+00:00
19,3882,Norman St & Wyckoff Ave,4654.01,40.69517,-73.90311,71,"CREDITCARD, KEY",15,False,13,1,1,0,False,False,False,False,2022-02-05 23:32:44+00:00
20,3875,Stephen St & Seneca Ave,4798.10,40.6988,-73.9007,71,"CREDITCARD, KEY",15,False,12,0,3,0,False,False,False,False,2022-02-05 20:55:40+00:00
21,400,Pitt St & Stanton St,5406.04,40.71926081,-73.98178024,71,"CREDITCARD, KEY",15,False,8,0,7,0,False,False,False,False,2022-02-05 23:31:27+00:00
22,4539,Willow Ave & 12 St,HB505,40.7518674823282,-74.03037697076797,311,"CREDITCARD, KEY",15,False,6,0,9,0,False,False,False,False,2022-02-05 21:01:52+00:00
23,4653,Adams St & 2 St,HB407,40.73981372311843,-74.03690412640572,311,"CREDITCARD, KEY",15,False,6,0,9,0,False,False,False,False,2022-02-05 23:45:13+00:00
24,3612,30 Ave & 21 St,6996.01,40.7703743,-73.9286078,71,"CREDITCARD, KEY",15,False,5,0,10,0,False,False,False,False,2022-02-05 23:59:31+00:00
25,3940,E 134 St & Walnut Ave,7613.04,40.800425,-73.911034,71,"CREDITCARD, KEY",16,False,9,1,6,0,False,False,False,False,2022-02-05 18:13:14+00:00
26,3874,Menahan St & Seneca Ave,4963.13,40.70461,-73.91054,71,"CREDITCARD, KEY",16,False,7,0,9,0,False,False,False,False,2022-02-05 21:56:42+00:00
27,3849,Suydam St & St. Nicholas Ave,5043.06,40.70636,-73.91945,71,"CREDITCARD, KEY",17,False,17,0,0,0,False,False,False,False,2022-02-05 23:36:24+00:00
28,3604,Rogers Ave & Sterling St,3696.05,40.6630619,-73.9538746,71,"CREDITCARD, KEY",17,False,15,0,2,0,False,False,False,False,2022-02-05 23:58:43+00:00
29,4019,St. Ann's Av & Bruckner Blvd,7657.03,40.803399,-73.919763,71,"CREDITCARD, KEY",17,False,14,1,2,0,False,False,False,False,2022-02-05 08:19:51+00:00
30,3941,Walnut Ave & E 136 St,7639.06,40.801657,-73.909513,71,"CREDITCARD, KEY",17,False,13,0,4,0,False,False,False,False,2022-02-05 15:31:48+00:00
31,3910,Greene Ave & Grandview Ave,5106.04,40.709697,-73.907856,71,"CREDITCARD, KEY",17,False,11,0,6,0,False,False,False,False,2022-02-05 18:00:09+00:00
32,4516,Sedgwick Ave & W Burnside Ave,8465.01,40.854947,-73.916661,71,"CREDITCARD, KEY",17,False,11,0,6,0,False,False,False,False,2022-02-05 09:20:35+00:00
33,3852,Stewart Ave & Johnson Ave,5123.07,40.70869,-73.92587,71,"CREDITCARD, KEY",17,False,8,0,9,0,False,False,False,False,2022-02-05 22:25:45+00:00
34,3923,Lincoln Ave & E 134 St,7712.06,40.808484,-73.928803,71,"CREDITCARD, KEY",17,False,8,0,9,0,False,False,False,False,2022-02-05 20:19:36+00:00
35,3873,Madison St & Cypress Ave,4807.02,40.70068,-73.90742,71,"CREDITCARD, KEY",17,False,7,0,10,0,False,False,False,False,2022-02-05 23:57:10+00:00
36,3897,Onderdonk Ave & Dekalb Ave,5115.01,40.70863,-73.91497,71,"CREDITCARD, KEY",17,False,3,0,14,0,False,False,False,False,2022-02-05 22:53:52+00:00
37,3901,Stanhope St & Fairview Ave,5146.03,40.70998,-73.91116,71,"CREDITCARD, KEY",17,False,2,1,14,0,False,False,False,False,2022-02-05 22:58:03+00:00
38,3903,Jefferson Ave & Evergreen Ave,4517.03,40.68989,-73.91458,71,"CREDITCARD, KEY",17,False,2,0,15,0,False,False,False,False,2022-02-05 23:46:19+00:00
39,3907,Central Ave & Melrose St,4832.07,40.70112,-73.93039,71,"CREDITCARD, KEY",17,False,1,0,16,0,False,False,False,False,2022-02-05 22:16:21+00:00
40,3191,Union St,JC051,40.7182113,-74.0836394,70,"CREDITCARD, KEY",18,False,17,0,1,0,False,False,False,False,2022-02-05 23:47:36+00:00
41,3899,Manhattan Av & Leonard St,5442.09,40.72084,-73.94844,71,"CREDITCARD, KEY",18,False,16,0,2,0,False,False,False,False,2022-02-05 23:55:32+00:00
42,4531,Clinton St & 7 St,HB303,40.74542,-74.03332,311,"CREDITCARD, KEY",18,False,16,0,2,0,False,False,False,False,2022-02-04 18:15:28+00:00
43,4673,Marshall St & 2 St,HB408,40.740802,-74.042521,311,"CREDITCARD, KEY",18,False,16,0,2,0,False,False,False,False,2022-02-05 22:44:42+00:00
44,3094,Graham Ave & Withers St,5403.04,40.7169811,-73.94485918,71,"CREDITCARD, KEY",18,False,15,0,3,0,False,False,False,False,2022-02-05 23:35:10+00:00
45,3196,Riverview Park,JC057,40.7443187,-74.0439909,70,"CREDITCARD, KEY",18,False,15,0,3,0,False,False,False,False,2022-02-05 23:10:07+00:00
46,3863,Central Ave & Woodbine St,4632.10,40.69296,-73.91605,71,"CREDITCARD, KEY",18,False,14,0,4,0,False,False,False,False,2022-02-05 23:36:23+00:00
47,4209,University Ave & W 168 St,8183.02,40.838706,-73.927034,71,"CREDITCARD, KEY",18,False,14,0,4,0,False,False,False,False,2022-02-05 08:40:08+00:00
48,4633,Grant Ave & MLK Dr,JC107,40.70919832245443,-74.08084273338318,70,"CREDITCARD, KEY",18,False,14,0,4,0,False,False,False,False,2022-02-05 19:26:07+00:00
49,3694,Jackson Square,JC063,40.71113,-74.0789,70,"CREDITCARD, KEY",18,False,12,1,5,0,False,False,False,False,2022-02-05 19:07:47+00:00
50,3193,Lincoln Park,JC053,40.7246050998869,-74.07840594649315,70,"CREDITCARD, KEY",18,False,12,0,6,0,False,False,False,False,2022-02-05 22:25:04+00:00
51,3201,Dey St,JC065,40.737711,-74.066921,70,"CREDITCARD, KEY",18,False,12,0,6,0,False,False,False,False,2022-02-05 20:17:19+00:00
52,3220,5 Corners Library,JC018,40.73496102000952,-74.0595030784607,70,"CREDITCARD, KEY",18,False,12,0,6,0,False,False,False,False,2022-02-05 23:10:40+00:00
53,3273,Manila & 1st,JC082,40.72165072487999,-74.04288411140442,70,"CREDITCARD, KEY",18,False,12,0,6,0,False,False,False,False,2022-02-05 23:58:23+00:00
54,3198,Heights Elevator,JC059,40.74871594538023,-74.04044330120087,70,"CREDITCARD, KEY",18,False,11,0,7,0,False,False,False,False,2022-02-05 23:13:50+00:00
55,3210,Pershing Field,JC024,40.742677141,-74.051788633,70,"CREDITCARD, KEY",18,False,11,0,7,0,False,False,False,False,2022-02-05 23:47:10+00:00
56,3947,E 138 St & Willow Ave,7654.04,40.804168,-73.911545,71,"CREDITCARD, KEY",18,False,11,0,7,0,False,False,False,False,2022-02-05 20:11:48+00:00
57,3255,8 Ave & W 31 St,6450.05,40.7505853470215,-73.9946848154068,71,"CREDITCARD, KEY",18,False,10,0,8,0,False,False,False,False,2022-02-05 23:55:30+00:00
58,3677,Glenwood Ave,JC094,40.72755146730012,-74.07106071710587,70,"CREDITCARD, KEY",18,False,10,0,8,0,False,False,False,False,2022-02-05 19:50:23+00:00
59,3928,Adam Clayton Powell Blvd & W 132 St,7814.01,40.813539,-73.94521,71,"CREDITCARD, KEY",18,False,10,0,8,0,False,False,False,False,2022-02-05 23:39:03+00:00
60,4112,Wards Meadow Comfort Station,7327.01,40.78294,-73.93077,71,"CREDITCARD, KEY",18,False,10,0,8,0,False,False,False,False,2022-02-05 22:37:34+00:00
61,4546,Adams St & 11 St,HB507,40.750915534784994,-74.03354063630104,311,"CREDITCARD, KEY",18,False,10,0,8,0,False,False,False,False,2022-02-05 16:01:37+00:00
62,3202,Newport PATH,JC066,40.7272235,-74.0337589,70,"CREDITCARD, KEY",18,False,9,0,9,0,False,False,False,False,2022-02-05 23:30:38+00:00
63,4041,Adam Clayton Powell Blvd & W 151 St,8009.05,40.825289,-73.936232,71,"CREDITCARD, KEY",18,False,9,0,9,0,False,False,False,False,2022-02-05 20:40:37+00:00
64,4533,6 St & Grand St,HB302,40.7443978330956,-74.03450086712837,311,"CREDITCARD, KEY",18,False,9,0,9,0,False,False,False,False,2022-02-05 23:58:06+00:00
65,4587,Stevens - River Ter & 6 St,HB602,40.74313282710551,-74.02698867022991,311,"CREDITCARD, KEY",18,False,9,0,9,0,False,False,False,False,2022-02-05 21:56:39+00:00
66,3059,Pulaski St & Marcus Garvey Blvd,4656.03,40.6933982,-73.939877,71,"CREDITCARD, KEY",18,False,2,6,10,0,False,False,False,False,2022-02-05 22:51:58+00:00
67,3279,Dixon Mills,JC076,40.721630142638354,-74.04996782541275,70,"CREDITCARD, KEY",18,False,8,0,10,0,False,False,False,False,2022-02-05 22:35:46+00:00
68,4532,4 St & Grand St,HB301,40.7422579775645,-74.03511106967926,311,"CREDITCARD, KEY",18,False,7,0,11,0,False,False,False,False,2022-02-05 23:42:08+00:00
69,3678,Fairmount Ave,JC093,40.72572613742557,-74.07195925712585,70,"CREDITCARD, KEY",18,False,6,0,12,0,False,False,False,False,2022-02-05 23:48:27+00:00
70,3681,Grand St,JC102,40.71517767732029,-74.03768330812454,70,"CREDITCARD, KEY",18,False,6,0,12,0,False,False,False,False,2022-02-05 23:28:54+00:00
71,3826,Moffat St & Bushwick,4357.01,40.68458,-73.90925,71,"CREDITCARD, KEY",18,False,5,0,13,0,False,False,False,False,2022-02-05 20:06:39+00:00
72,3833,Madison St & Evergreen Ave,4560.01,40.69122,-73.91693,71,"CREDITCARD, KEY",18,False,5,0,13,0,False,False,False,False,2022-02-05 18:47:28+00:00
73,3057,Kosciuszko St & Tompkins Ave,4553.04,40.69128258,-73.9452416,71,"CREDITCARD, KEY",18,False,3,1,14,0,False,False,False,False,2022-02-05 23:45:15+00:00
74,3638,Washington St,JC098,40.7242941,-74.0354826,70,"CREDITCARD, KEY",18,False,3,1,14,0,False,False,False,False,2022-02-05 23:35:43+00:00
75,3862,Linden St & Knickerbocker Ave,4743.04,40.69714,-73.91566,71,"CREDITCARD, KEY",18,False,4,0,14,0,False,False,False,False,2022-02-05 23:37:35+00:00
76,4535,9 St HBLR - Jackson St & 8 St,HB305,40.74790720968899,-74.03841152787209,311,"CREDITCARD, KEY",18,False,4,0,14,0,False,False,False,False,2022-02-05 22:05:27+00:00
77,3049,Cambridge Pl & Gates Ave,4377.04,40.68488,-73.96304,71,"CREDITCARD, KEY",18,False,3,0,15,0,False,False,False,False,2022-02-05 23:24:29+00:00
78,3595,35 St & Broadway,6750.16,40.760339,-73.9222427,71,"CREDITCARD, KEY",18,False,3,0,15,0,False,False,False,False,2022-02-05 23:55:21+00:00
79,4513,Tiebout Ave & E 184 St,8510.02,40.858498,-73.89637,71,"CREDITCARD, KEY",18,False,3,0,15,0,False,False,False,False,2022-02-05 09:40:47+00:00
80,4559,Jerome Ave & W 193 St,8619.02,40.86659,-73.89794,71,"CREDITCARD, KEY",18,False,3,0,15,0,False,False,False,False,2022-02-05 16:40:34+00:00
81,3978,Cauldwell Ave & E 161 St,7952.02,40.82188,-73.907521,71,"CREDITCARD, KEY",18,False,2,0,16,0,False,False,False,False,2022-02-05 17:55:57+00:00
82,3412,Pacific St & Nevins St,4362.04,40.6853761,-73.98302136,71,"CREDITCARD, KEY",18,False,1,0,17,0,False,False,False,False,2022-02-05 23:33:21+00:00
83,3817,Withers St & Kingsland Ave,5362.08,40.71773,-73.94051,71,"CREDITCARD, KEY",18,False,1,0,17,0,False,False,False,False,2022-02-05 22:58:45+00:00
84,3640,Journal Square,JC103,40.73367,-74.0625,70,"CREDITCARD, KEY",18,False,0,0,18,0,False,False,False,False,2022-02-05 20:30:40+00:00
85,3759,Irving Ave & Jefferson St,5051.02,40.70538,-73.92535,71,"CREDITCARD, KEY",19,False,18,1,0,0,False,False,False,False,2022-02-05 19:18:30+00:00
86,3938,E 133 St & Cypress Pl,7642.04,40.80262,-73.9174,71,"CREDITCARD, KEY",19,False,19,0,0,0,False,False,False,False,2022-02-05 19:21:52+00:00
87,4131,Goble Pl & Macombs Rd,8269.01,40.844075,-73.917256,71,"CREDITCARD, KEY",19,False,19,0,0,0,False,False,False,False,2022-02-05 21:31:54+00:00
88,4160,Washington Ave & E 174 St,8277.03,40.843079,-73.900216,71,"CREDITCARD, KEY",19,False,19,0,0,0,False,False,False,False,2022-02-05 17:46:33+00:00
89,4293,Ditmars Blvd & 76 St,6927.03,40.768442,-73.893531,71,"CREDITCARD, KEY",19,False,18,1,0,0,False,False,False,False,2022-02-05 09:00:20+00:00
90,4371,30 St & 4 Ave,3564.04,40.657743,-74.001141,71,"CREDITCARD, KEY",19,False,19,0,0,0,False,False,False,False,2022-02-05 09:00:21+00:00
91,4381,42 St & 1 Ave,3428.02,40.654798,-74.014372,71,"CREDITCARD, KEY",19,False,19,0,0,0,False,False,False,False,2022-02-05 09:20:33+00:00
92,4388,44 St & 2 Ave,3356.05,40.652502,-74.013587,71,"CREDITCARD, KEY",19,False,18,1,0,0,False,False,False,False,2022-02-05 20:20:58+00:00
93,3393,Richards St & Delavan St,4202.04,40.6794327,-74.00785041,71,"CREDITCARD, KEY",19,False,18,0,1,0,False,False,False,False,2022-02-05 23:03:21+00:00
94,3601,Sterling St & Bedford Ave,3665.06,40.6627059,-73.9569115,71,"CREDITCARD, KEY",19,False,17,1,1,0,False,False,False,False,2022-02-05 23:48:48+00:00
95,3834,Irving Ave & Halsey St,4695.04,40.69467,-73.90663,71,"CREDITCARD, KEY",19,False,18,0,1,0,False,False,False,False,2022-02-05 23:24:04+00:00
96,4162,Southern Blvd & E 172 St,8129.02,40.834124,-73.88955,71,"CREDITCARD, KEY",19,False,18,0,1,0,False,False,False,False,2022-02-05 18:09:12+00:00
97,4286,58 St & 32 Ave,6579.03,40.75574,-73.903427,71,"CREDITCARD, KEY",19,False,18,0,1,0,False,False,False,False,2022-02-05 19:15:38+00:00
98,4325,21 Ave & 80 St,7060.02,40.770888,-73.889914,71,"CREDITCARD, KEY",19,False,18,0,1,0,False,False,False,False,2022-02-05 20:55:48+00:00
99,3392,Commerce St & Van Brunt St,4243.01,40.6812117,-74.00860912,71,"CREDITCARD, KEY",19,False,16,1,2,0,False,False,False,False,2022-02-05 23:09:24+00:00
100,3515,24 Ave & 26 St,7152.10,40.774591,-73.918544,71,"CREDITCARD, KEY",19,False,17,0,2,0,False,False,False,False,2022-02-05 21:39:53+00:00
101,3564,21 St & 36 Ave,6729.02,40.7601853,-73.9362726,71,"CREDITCARD, KEY",19,False,17,0,2,0,False,False,False,False,2022-02-05 21:39:04+00:00
102,3961,Morris Ave & E 153 St,7901.04,40.820036,-73.921411,71,"CREDITCARD, KEY",19,False,17,0,2,0,False,False,False,False,2022-02-05 23:41:58+00:00
103,4208,Walton Ave & E 153 St,7945.07,40.822351,-73.926907,71,"CREDITCARD, KEY",19,False,17,0,2,0,False,False,False,False,2022-02-05 21:30:50+00:00
104,4267,Bulova Ave & Brooklyn Queens Expressway W,6766.03,40.762507,-73.902534,71,"CREDITCARD, KEY",19,False,17,0,2,0,False,False,False,False,2022-02-05 19:13:18+00:00
105,4448,9 Ave & W 219 St,8696.05,40.871094,-73.911503,71,"CREDITCARD, KEY",19,False,17,0,2,0,False,False,False,False,2022-02-05 20:02:39+00:00
106,4458,Dyckman St & 10 Ave,8507.02,40.85890447538412,-73.9230939745903,71,"CREDITCARD, KEY",19,False,17,0,2,0,False,False,False,False,2022-02-05 21:59:04+00:00
107,3395,Henry St & W 9 St,4086.06,40.6763744,-74.00324957,71,"CREDITCARD, KEY",19,False,16,0,3,0,False,False,False,False,2022-02-05 17:18:37+00:00
108,3936,W 133 St & 12 Ave,7925.04,40.820003,-73.959089,71,"CREDITCARD, KEY",19,False,16,0,3,0,False,False,False,False,2022-02-05 19:44:18+00:00
109,4101,E 153 St & E 157 St,8025.01,40.826677,-73.929327,71,"CREDITCARD, KEY",19,False,16,0,3,0,False,False,False,False,2022-02-05 08:40:05+00:00
110,4311,8 St & Astoria Blvd,7068.07,40.7725996921817,-73.93266275525093,71,"CREDITCARD, KEY",19,False,16,0,3,0,False,False,False,False,2022-02-05 21:49:49+00:00
111,4473,Broadway & W 220 St,8715.01,40.872412,-73.912807,71,"CREDITCARD, KEY",19,False,16,0,3,0,False,False,False,False,2022-02-05 09:20:34+00:00
112,4525,Grand St & 14 St,HB506,40.75409,-74.0316,311,"CREDITCARD, KEY",19,False,16,0,3,0,False,False,False,False,2022-02-05 23:30:24+00:00
113,373,Willoughby Ave & Walworth St,4634.02,40.69331716,-73.95381995,71,"CREDITCARD, KEY",19,False,12,3,4,0,False,False,False,False,2022-02-05 23:10:32+00:00
114,3066,Tompkins Ave & Hopkins St,4850.04,40.69957608,-73.94708417,71,"CREDITCARD, KEY",19,False,15,0,4,0,False,False,False,False,2022-02-05 23:56:51+00:00
115,3596,Sullivan Pl & Bedford Ave,3736.04,40.6642406,-73.9574686,71,"CREDITCARD, KEY",19,False,14,1,4,0,False,False,False,False,2022-02-05 21:03:59+00:00
116,3970,Melrose Ave & E 154 St,7918.12,40.819609,-73.916071,71,"CREDITCARD, KEY",19,False,15,0,4,0,False,False,False,False,2022-02-05 20:54:28+00:00
117,4032,E 155 St & Courtlandt Ave,7940.02,40.82057,-73.917579,71,"CREDITCARD, KEY",19,False,15,0,4,0,False,False,False,False,2022-02-05 21:33:34+00:00
118,4092,Jerome Ave & Anderson Ave,8061.01,40.830179,-73.928747,71,"CREDITCARD, KEY",19,False,15,0,4,0,False,False,False,False,2022-02-05 08:40:05+00:00
119,4372,34 St & 5 Ave,3451.01,40.654098,-74.001131,71,"CREDITCARD, KEY",19,False,15,0,4,0,False,False,False,False,2022-02-05 09:00:21+00:00
120,376,John St & William St,5065.04,40.70862144,-74.00722156,71,"CREDITCARD, KEY",19,False,13,1,5,0,False,False,False,False,2022-02-05 23:56:30+00:00
121,421,Clermont Ave & Park Ave,4692.01,40.69573398,-73.97129668,71,"CREDITCARD, KEY",19,False,13,1,5,0,False,False,False,False,2022-02-05 22:55:06+00:00
122,3330,Henry St & Bay St,3972.08,40.6725058,-74.00494695,71,"CREDITCARD, KEY",19,False,14,0,5,0,False,False,False,False,2022-02-05 22:14:06+00:00
123,3976,E 156 & Brook Ave,7896.11,40.819823,-73.912411,71,"CREDITCARD, KEY",19,False,14,0,5,0,False,False,False,False,2022-02-05 23:40:58+00:00
124,4127,Ogden Ave & Merriam Ave,8218.04,40.839142,-73.925961,71,"CREDITCARD, KEY",19,False,14,0,5,0,False,False,False,False,2022-02-05 08:40:05+00:00
125,4353,Prospect Ave & Vanderbilt St,3426.02,40.653368,-73.976291,71,"CREDITCARD, KEY",19,False,12,2,5,0,False,False,False,False,2022-02-05 20:43:23+00:00
126,4457,Broadway & Ellwood St,8547.04,40.862058,-73.929719,71,"CREDITCARD, KEY",19,False,13,1,5,0,False,False,False,False,2022-02-05 19:17:18+00:00
127,3046,Marcus Garvey Blvd & Macon St,4278.03,40.682601,-73.938037,71,"CREDITCARD, KEY",19,False,13,0,6,0,False,False,False,False,2022-02-05 23:59:32+00:00
128,3071,Boerum St & Broadway,5004.02,40.70538077,-73.94976519,71,"CREDITCARD, KEY",19,False,13,0,6,0,False,False,False,False,2022-02-05 23:51:08+00:00
129,3704,47 Ave & Skillman Ave,6237.01,40.7437524099784,-73.94176483154297,71,"CREDITCARD, KEY",19,False,13,0,6,0,False,False,False,False,2022-02-05 06:58:51+00:00
130,3755,DeKalb Ave & Franklin Ave,4528.01,40.69064807082943,-73.95746178925037,71,"CREDITCARD, KEY",19,False,11,2,6,0,False,False,False,False,2022-02-05 23:33:30+00:00
131,3758,George St & Wilson Ave,4906.07,40.702997,-73.92997,71,"CREDITCARD, KEY",19,False,13,0,6,0,False,False,False,False,2022-02-05 22:57:57+00:00
132,3922,Alexander Ave & E 134 St,7712.04,40.807466,-73.927107,71,"CREDITCARD, KEY",19,False,12,1,6,0,False,False,False,False,2022-02-05 23:41:34+00:00
133,3951,E 141 St & St Ann's Ave,7722.06,40.808633,-73.916124,71,"CREDITCARD, KEY",19,False,13,0,6,0,False,False,False,False,2022-02-05 20:27:00+00:00
134,3969,St Ann's Ave & Westchester Ave,7835.10,40.815887,-73.911918,71,"CREDITCARD, KEY",19,False,13,0,6,0,False,False,False,False,2022-02-05 22:15:48+00:00
135,3988,E 128 St & 3 Ave,7696.07,40.805631,-73.934077,71,"CREDITCARD, KEY",19,False,13,0,6,0,False,False,False,False,2022-02-05 08:19:51+00:00
136,4163,Boone Ave & E 172 St,8110.04,40.832649,-73.885272,71,"CREDITCARD, KEY",19,False,13,0,6,0,False,False,False,False,2022-02-05 16:45:29+00:00
137,4374,48 St & 2 Ave,3283.05,40.650176,-74.015606,71,"CREDITCARD, KEY",19,False,13,0,6,0,False,False,False,False,2022-02-05 09:20:31+00:00
138,3857,Engert Ave & McGuinness Blvd,5473.03,40.72158,-73.94546,71,"CREDITCARD, KEY",19,False,12,0,7,0,False,False,False,False,2022-02-05 23:49:10+00:00
139,3878,Cypress Ave & George St,4765.07,40.69812,-73.90271,71,"CREDITCARD, KEY",19,False,12,0,7,0,False,False,False,False,2022-02-05 21:59:46+00:00
140,3930,E 142 St & 3 Ave,7781.10,40.812735,-73.923697,71,"CREDITCARD, KEY",19,False,12,0,7,0,False,False,False,False,2022-02-05 23:38:07+00:00
141,3957,E 144 St & Brook Ave,7777.02,40.811675,-73.917037,71,"CREDITCARD, KEY",19,False,12,0,7,0,False,False,False,False,2022-02-05 23:24:47+00:00
142,4165,E 165 St & Clay Ave,8052.02,40.82809,-73.91288,71,"CREDITCARD, KEY",19,False,12,0,7,0,False,False,False,False,2022-02-05 16:53:59+00:00
143,4370,29 St & 5 Ave,3523.06,40.656986,-73.998194,71,"CREDITCARD, KEY",19,False,12,0,7,0,False,False,False,False,2022-02-05 14:39:14+00:00
144,4414,24 St & 5 Ave,3555.04,40.659555,-73.995068,71,"CREDITCARD, KEY",19,False,12,0,7,0,False,False,False,False,2022-02-05 21:29:51+00:00
145,4494,Townsend Ave & E 175 St,8323.05,40.84741,-73.911359,71,"CREDITCARD, KEY",19,False,12,0,7,0,False,False,False,False,2022-02-05 11:35:33+00:00
146,4512,Jerome Ave & E 181 St,8478.11,40.855653,-73.905528,71,"CREDITCARD, KEY",19,False,12,0,7,0,False,False,False,False,2022-02-05 06:58:50+00:00
147,3241,Monroe St & Tompkins Ave,4434.06,40.686203,-73.944694,71,"CREDITCARD, KEY",19,False,8,3,8,0,False,False,False,False,2022-02-05 23:57:56+00:00
148,3868,Knickerbocker Ave & Halsey St,4623.02,40.693,-73.90824,71,"CREDITCARD, KEY",19,False,11,0,8,0,False,False,False,False,2022-02-05 23:22:50+00:00
149,3920,E 132 St & Madison Ave,7748.02,40.810224,-73.937195,71,"CREDITCARD, KEY",19,False,11,0,8,0,False,False,False,False,2022-02-05 23:51:10+00:00
150,3933,Gerard Ave & E 146 St,7868.05,40.817755,-73.92965,71,"CREDITCARD, KEY",19,False,10,1,8,0,False,False,False,False,2022-02-05 21:50:03+00:00
151,4116,Gerard Ave & E 164 St,8077.07,40.830262,-73.923391,71,"CREDITCARD, KEY",19,False,11,0,8,0,False,False,False,False,2022-02-05 20:48:18+00:00
152,4330,31 Rd & 21 St,6929.02,40.766824,-73.930486,71,"CREDITCARD, KEY",19,False,11,0,8,0,False,False,False,False,2022-02-05 23:35:54+00:00
153,4382,41 St & 3 Ave,3388.02,40.652512,-74.008906,71,"CREDITCARD, KEY",19,False,11,0,8,0,False,False,False,False,2022-02-05 09:01:28+00:00
154,4630,W 225 St & Exterior St,8711.02,40.873265,-73.906646,71,"CREDITCARD, KEY",19,False,11,0,8,0,False,False,False,False,2022-02-05 18:01:48+00:00
155,3559,21 St & 38 Ave,6656.05,40.7576314,-73.9391224,71,"CREDITCARD, KEY",19,False,7,3,9,0,False,False,False,False,2022-02-05 21:57:32+00:00
156,3592,Crescent St & Broadway,6827.11,40.7633589,-73.9286471,71,"CREDITCARD, KEY",19,False,10,0,9,0,False,False,False,False,2022-02-05 22:43:28+00:00
157,4054,W 163 St & Riverside Dr,8210.01,40.839278,-73.945446,71,"CREDITCARD, KEY",19,False,10,0,9,0,False,False,False,False,2022-02-05 14:54:03+00:00
158,4170,Webster Ave & E 166 St,8052.01,40.828975,-73.911259,71,"CREDITCARD, KEY",19,False,10,0,9,0,False,False,False,False,2022-02-05 09:00:17+00:00
159,4357,Ft. Hamilton Pkwy & E 2 St,3280.04,40.648005,-73.979342,71,"CREDITCARD, KEY",19,False,10,0,9,0,False,False,False,False,2022-02-05 20:47:15+00:00
160,275,Washington Ave & Greene Ave,4419.03,40.68650065,-73.96563307,71,"CREDITCARD, KEY",19,False,7,2,10,0,False,False,False,False,2022-02-05 23:45:54+00:00
161,3557,40 Ave & 9 St,6664.05,40.75742,-73.945133,71,"CREDITCARD, KEY",19,False,8,1,10,0,False,False,False,False,2022-02-05 21:09:41+00:00
162,3565,36 Ave & 10 St,6737.03,40.7614376,-73.9411265,71,"CREDITCARD, KEY",19,False,9,0,10,0,False,False,False,False,2022-02-05 22:41:19+00:00
163,3772,Devoe St & Morgan Ave,5282.02,40.713811,-73.93515,71,"CREDITCARD, KEY",19,False,9,0,10,0,False,False,False,False,2022-02-05 23:26:48+00:00
164,3872,Hancock St & Wyckoff Ave,4735.16,40.6972,-73.90674,71,"CREDITCARD, KEY",19,False,9,0,10,0,False,False,False,False,2022-02-05 18:53:35+00:00
165,4138,3 Ave & Franklin Ave,8012.04,40.82696,-73.907451,71,"CREDITCARD, KEY",19,False,9,0,10,0,False,False,False,False,2022-02-05 21:49:20+00:00
166,4147,E 163 St & Tiffany St,7927.08,40.821075,-73.895069,71,"CREDITCARD, KEY",19,False,9,0,10,0,False,False,False,False,2022-02-05 23:55:34+00:00
167,4159,3 Ave & E 172 St,8205.05,40.839586,-73.900277,71,"CREDITCARD, KEY",19,False,9,0,10,0,False,False,False,False,2022-02-05 21:25:50+00:00
168,3607,31 Ave & 14 St,6966.04,40.7682,-73.9322662,71,"CREDITCARD, KEY",19,False,8,0,11,0,False,False,False,False,2022-02-05 21:06:21+00:00
169,3950,Brook Ave & E 141 St,7740.08,40.809619,-73.917875,71,"CREDITCARD, KEY",19,False,8,0,11,0,False,False,False,False,2022-02-05 19:08:14+00:00
170,4108,Clay Ave & E 173 St,8281.06,40.843264,-73.904867,71,"CREDITCARD, KEY",19,False,8,0,11,0,False,False,False,False,2022-02-05 17:52:50+00:00
171,4126,E 157 St & River Ave,8005.03,40.825737,-73.927311,71,"CREDITCARD, KEY",19,False,8,0,11,0,False,False,False,False,2022-02-05 18:56:44+00:00
172,4250,Seneca Ave & Irvine St,7883.09,40.81872569990116,-73.88862490653992,71,"CREDITCARD, KEY",19,False,8,0,11,0,False,False,False,False,2022-02-05 09:00:19+00:00
173,4460,Dyckman St & Henshaw St,8636.04,40.867357,-73.92936,71,"CREDITCARD, KEY",19,False,8,0,11,0,False,False,False,False,2022-02-05 23:53:38+00:00
174,4461,Dyckman St & Staff St,8655.02,40.868846,-73.931537,71,"CREDITCARD, KEY",19,False,8,0,11,0,False,False,False,False,2022-02-05 22:41:59+00:00
175,4553,Andrew Ave N & Hall of Fame Tce,8520.01,40.85834,-73.91008,71,"CREDITCARD, KEY",19,False,8,0,11,0,False,False,False,False,2022-02-05 10:37:58+00:00
176,4606,67 St & Ridge Blvd,2932.01,40.638799,-74.027472,71,"CREDITCARD, KEY",19,False,7,1,11,0,False,False,False,False,2022-02-05 21:47:53+00:00
177,4609,Paul Ave & W 205 St,8782.01,40.87704,-73.88943,71,"CREDITCARD, KEY",19,False,8,0,11,0,False,False,False,False,2022-02-05 09:40:48+00:00
178,4619,Bergen Ave & Stegman St,JC108,40.70657545063453,-74.0867006778717,70,"CREDITCARD, KEY",19,False,8,0,11,0,False,False,False,False,2022-02-05 09:40:48+00:00
179,120,Lexington Ave & Classon Ave,4452.03,40.68676793,-73.95928168,71,"CREDITCARD, KEY",19,False,7,0,12,0,False,False,False,False,2022-02-05 23:56:26+00:00
180,341,Stanton St & Mangin St,5326.06,40.71782143,-73.97628939,71,"CREDITCARD, KEY",19,False,7,0,12,0,False,False,False,False,2022-02-05 22:14:56+00:00
181,3048,Putnam Ave & Nostrand Ave,4327.09,40.68402,-73.94977,71,"CREDITCARD, KEY",19,False,6,1,12,0,False,False,False,False,2022-02-05 23:43:24+00:00
182,3795,10 St & 2 Ave,3922.02,40.671907,-73.993612,71,"CREDITCARD, KEY",19,False,7,0,12,0,False,False,False,False,2022-02-05 22:26:00+00:00
183,3883,Harman St & Seneca Ave,5002.09,40.70577,-73.91292,71,"CREDITCARD, KEY",19,False,6,1,12,0,False,False,False,False,2022-02-05 21:50:55+00:00
184,3913,Sands St Gate,4812.04,40.699569,-73.979827,71,"CREDITCARD, KEY",19,False,2,5,12,0,False,False,False,False,2022-02-05 23:52:38+00:00
185,4053,W 163 St & Edgecombe Ave,8153.10,40.835798,-73.937496,71,"CREDITCARD, KEY",19,False,7,0,12,0,False,False,False,False,2022-02-05 17:54:03+00:00
186,4155,E 169 St & Fox St,8024.05,40.827184,-73.893721,71,"CREDITCARD, KEY",19,False,7,0,12,0,False,False,False,False,2022-02-05 08:40:06+00:00
187,4182,Louis Nine Blvd & Intervale Ave,8114.02,40.831998,-73.892686,71,"CREDITCARD, KEY",19,False,6,1,12,0,False,False,False,False,2022-02-05 23:57:30+00:00
188,4205,Crotona Park North & Prospect Ave,8236.01,40.841092,-73.892317,71,"CREDITCARD, KEY",19,False,7,0,12,0,False,False,False,False,2022-02-05 22:24:22+00:00
189,4324,Ditmars Blvd & 73 St,6964.05,40.76817,-73.896293,71,"CREDITCARD, KEY",19,False,7,0,12,0,False,False,False,False,2022-02-05 22:56:31+00:00
190,4652,Rogers Pl & E 165 St,7987.14,40.82388366441761,-73.8974027708582,71,"CREDITCARD, KEY",19,False,7,0,12,0,False,False,False,False,2022-02-05 17:23:34+00:00
191,3042,Fulton St & Utica Ave,4228.02,40.6794268,-73.9298911,71,"CREDITCARD, KEY",19,False,5,1,13,0,False,False,False,False,2022-02-05 22:29:49+00:00
192,3088,Union Ave & Jackson St,5300.06,40.7160751,-73.952029,71,"CREDITCARD, KEY",19,False,6,0,13,0,False,False,False,False,2022-02-05 22:56:41+00:00
193,4028,Frederick Douglass Blvd & Harlem River Dr,8100.01,40.830702,-73.936371,71,"CREDITCARD, KEY",19,False,5,1,13,0,False,False,False,False,2022-02-05 21:58:22+00:00
194,4276,20 Ave & Shore Blvd,7391.02,40.785994,-73.915098,71,"CREDITCARD, KEY",19,False,6,0,13,0,False,False,False,False,2022-02-05 09:00:19+00:00
195,4322,20 Ave & 21 St,7363.04,40.784003,-73.912297,71,"CREDITCARD, KEY",19,False,6,0,13,0,False,False,False,False,2022-02-05 23:50:14+00:00
196,3453,Devoe St & Lorimer St,5259.06,40.71335226222875,-73.9491033554077,71,"CREDITCARD, KEY",19,False,5,0,14,0,False,False,False,False,2022-02-05 23:27:40+00:00
197,3888,Woodward Ave & Harman St,5074.08,40.70793,-73.91092,71,"CREDITCARD, KEY",19,False,5,0,14,0,False,False,False,False,2022-02-05 18:44:09+00:00
198,3929,Willis Ave & E 141 St,7759.08,40.81093,-73.921606,71,"CREDITCARD, KEY",19,False,5,0,14,0,False,False,False,False,2022-02-05 21:41:06+00:00
199,3965,E 149 St & Eagle Ave,7793.02,40.814046,-73.91186,71,"CREDITCARD, KEY",19,False,5,0,14,0,False,False,False,False,2022-02-05 08:19:52+00:00
200,4154,Faile St & Garrison Ave,7922.01,40.820578,-73.888271,71,"CREDITCARD, KEY",19,False,5,0,14,0,False,False,False,False,2022-02-05 08:40:06+00:00
201,4185,Southern Blvd & E 175 St,8196.02,40.839335,-73.886445,71,"CREDITCARD, KEY",19,False,5,0,14,0,False,False,False,False,2022-02-05 21:46:34+00:00
202,4273,Ditmars Blvd & 48 St,6935.01,40.769219,-73.901001,71,"CREDITCARD, KEY",19,False,5,0,14,0,False,False,False,False,2022-02-05 18:02:49+00:00
203,4396,62 St & 4 Ave,2923.01,40.639859,-74.019776,71,"CREDITCARD, KEY",19,False,5,0,14,0,False,False,False,False,2022-02-05 14:00:29+00:00
204,4612,Macombs Rd & Featherbed Ln,8307.05,40.84552,-73.91722,71,"CREDITCARD, KEY",19,False,5,0,14,0,False,False,False,False,2022-02-05 09:40:49+00:00
205,3043,Lewis Ave & Decatur St,4237.01,40.6814598,-73.934903,71,"CREDITCARD, KEY",19,False,4,0,15,0,False,False,False,False,2022-02-05 20:18:48+00:00
206,3530,Crescent St & Ditmars Blvd,7233.05,40.7787185,-73.9145645,71,"CREDITCARD, KEY",19,False,3,1,15,0,False,False,False,False,2022-02-05 22:17:06+00:00
207,3598,Newton Rd & 44 St,6743.06,40.7595701,-73.9142678,71,"CREDITCARD, KEY",19,False,4,0,15,0,False,False,False,False,2022-02-05 22:05:53+00:00
208,3661,Montgomery St & Franklin Ave,3776.05,40.666439306870814,-73.9605563879013,71,"CREDITCARD, KEY",19,False,2,2,15,0,False,False,False,False,2022-02-05 21:25:35+00:00
209,3767,Powers St & Olive St,5210.01,40.71323,-73.93894,71,"CREDITCARD, KEY",19,False,3,1,15,0,False,False,False,False,2022-02-05 23:38:15+00:00
210,4167,Grand Concourse & East Mount Eden Ave,8265.09,40.84301,-73.91172,71,"CREDITCARD, KEY",19,False,4,0,15,0,False,False,False,False,2022-02-05 13:45:42+00:00
211,4190,Walton Ave & E 171 St,8249.10,40.840683,-73.915073,71,"CREDITCARD, KEY",19,False,2,2,15,0,False,False,False,False,2022-02-05 23:31:06+00:00
212,4202,Dawson St & Intervale Ave,7888.10,40.819999,-73.897263,71,"CREDITCARD, KEY",19,False,4,0,15,0,False,False,False,False,2022-02-05 19:48:12+00:00
213,4213,Wilkins Ave & Crotona Park E,8167.02,40.835302,-73.895133,71,"CREDITCARD, KEY",19,False,3,1,15,0,False,False,False,False,2022-02-05 21:52:22+00:00
214,4265,49 St & 31 Ave,6662.01,40.758057,-73.909831,71,"CREDITCARD, KEY",19,False,3,1,15,0,False,False,False,False,2022-02-05 23:35:58+00:00
215,4305,34 Ave & 31 St,6720.07,40.759604471387945,-73.92714411020279,71,"CREDITCARD, KEY",19,False,4,0,15,0,False,False,False,False,2022-02-05 23:16:03+00:00
216,4310,24 St & 38 Ave,6581.14,40.756351,-73.936515,71,"CREDITCARD, KEY",19,False,4,0,15,0,False,False,False,False,2022-02-05 22:42:57+00:00
217,4566,Bainbridge Ave & Bedford Park Blvd,8682.06,40.87002,-73.88565,71,"CREDITCARD, KEY",19,False,4,0,15,0,False,False,False,False,2022-02-05 18:51:07+00:00
218,3054,Greene Ave & Throop Ave,4510.04,40.6894932,-73.942061,71,"CREDITCARD, KEY",19,False,2,1,16,0,False,False,False,False,2022-02-05 23:16:26+00:00
219,3060,Willoughby Ave & Tompkins Ave,4665.02,40.69425403,-73.94626915,71,"CREDITCARD, KEY",19,False,3,0,16,0,False,False,False,False,2022-02-05 23:48:49+00:00
220,3586,34 Ave & 13 St,6836.07,40.7638753,-73.9364848,71,"CREDITCARD, KEY",19,False,3,0,16,0,False,False,False,False,2022-02-05 09:46:43+00:00
221,3590,Carroll St & Franklin Ave,3847.04,40.6679411,-73.9588,71,"CREDITCARD, KEY",19,False,3,0,16,0,False,False,False,False,2022-02-05 22:02:27+00:00
222,4139,Tinton Ave & E 165 St,7991.01,40.824796,-73.90242,71,"CREDITCARD, KEY",19,False,3,0,16,0,False,False,False,False,2022-02-05 17:20:41+00:00
223,4157,Boston Rd & Prospect Ave,8133.08,40.833246,-73.896599,71,"CREDITCARD, KEY",19,False,3,0,16,0,False,False,False,False,2022-02-05 21:35:43+00:00
224,4211,Union Ave & E 169 St,8064.03,40.82995,-73.898802,71,"CREDITCARD, KEY",19,False,3,0,16,0,False,False,False,False,2022-02-05 21:39:41+00:00
225,4227,Crotona Park East & E 173 St,8182.02,40.837037,-73.890413,71,"CREDITCARD, KEY",19,False,3,0,16,0,False,False,False,False,2022-02-05 22:32:29+00:00
226,4391,52 St & 6 Ave,3084.05,40.642703,-74.009441,71,"CREDITCARD, KEY",19,False,3,0,16,0,False,False,False,False,2022-02-05 22:50:36+00:00
227,4511,Grand Ave & W 181 St,8500.01,40.856302,-73.907302,71,"CREDITCARD, KEY",19,False,3,0,16,0,False,False,False,False,2022-02-05 19:51:33+00:00
228,4575,Decatur Ave & E 197 St,8597.01,40.86557,-73.88807,71,"CREDITCARD, KEY",19,False,3,0,16,0,False,False,False,False,2022-02-05 09:40:47+00:00
229,4580,Goulden Ave & W 205 St,8799.01,40.87812,-73.89192,71,"CREDITCARD, KEY",19,False,3,0,16,0,False,False,False,False,2022-02-05 22:35:36+00:00
230,278,Concord St & Bridge St,4781.03,40.69766564,-73.98476437,71,"CREDITCARD, KEY",19,False,2,0,17,0,False,False,False,False,2022-02-05 23:31:03+00:00
231,3249,Verona Pl & Fulton St,4124.04,40.6803560840434,-73.9476791024208,71,"CREDITCARD, KEY",19,False,1,1,17,0,False,False,False,False,2022-02-05 23:49:12+00:00
232,3691,28 Ave & 44 St,6879.04,40.76408932350688,-73.91065120697021,71,"CREDITCARD, KEY",19,False,2,0,17,0,False,False,False,False,2022-02-05 22:49:54+00:00
233,3820,Willoughby Ave & Myrtle Ave,4759.02,40.69757,-73.93098,71,"CREDITCARD, KEY",19,False,2,0,17,0,False,False,False,False,2022-02-05 23:48:33+00:00
234,3885,Onderdonk Ave & Gates Ave,4994.10,40.70413,-73.90737,71,"CREDITCARD, KEY",19,False,2,0,17,0,False,False,False,False,2022-02-05 21:26:33+00:00
235,3952,E 141 St & Jackson Ave,7703.14,40.806896,-73.911837,71,"CREDITCARD, KEY",19,False,2,0,17,0,False,False,False,False,2022-02-05 23:21:32+00:00
236,3955,St Mary's St & Jackson Ave,7737.06,40.808891,-73.91081,71,"CREDITCARD, KEY",19,False,2,0,17,0,False,False,False,False,2022-02-05 08:19:51+00:00
237,4132,Southern Blvd & Avenue St. John,7767.06,40.812769,-73.901583,71,"CREDITCARD, KEY",19,False,2,0,17,0,False,False,False,False,2022-02-05 23:31:57+00:00
238,4158,Freeman St & Reverend James A Polite Ave,8080.01,40.830529,-73.894717,71,"CREDITCARD, KEY",19,False,2,0,17,0,False,False,False,False,2022-02-05 08:40:07+00:00
239,4172,Washington Ave & E 167 St,8068.01,40.829896,-73.907618,71,"CREDITCARD, KEY",19,False,2,0,17,0,False,False,False,False,2022-02-05 23:57:18+00:00
240,4183,Fulton Ave & E 172 St,8186.01,40.839229,-73.899047,71,"CREDITCARD, KEY",19,False,2,0,17,0,False,False,False,False,2022-02-05 16:38:30+00:00
241,4192,Prospect Ave & E 167 St,8008.03,40.826303,-73.898751,71,"CREDITCARD, KEY",19,False,2,0,17,0,False,False,False,False,2022-02-05 19:07:39+00:00
242,4541,Sedgwick Ave & W Tremont Ave,8428.03,40.853157,-73.918214,71,"CREDITCARD, KEY",19,False,2,0,17,0,False,False,False,False,2022-02-05 09:52:39+00:00
243,4569,E 201 St & Briggs Ave,8717.07,40.87207,-73.88459,71,"CREDITCARD, KEY",19,False,2,0,17,0,False,False,False,False,2022-02-05 09:40:49+00:00
244,4610,Paul Ave & Mosholu Pkwy,8811.01,40.8802945,-73.8860653648,71,"CREDITCARD, KEY",19,False,1,1,17,0,False,False,False,False,2022-02-05 09:40:47+00:00
245,289,Monroe St & Classon Ave,4336.01,40.6845683,-73.95881081,71,"CREDITCARD, KEY",19,False,1,0,18,0,False,False,False,False,2022-02-05 23:43:10+00:00
246,3522,37 St & 24 Ave,6981.16,40.7701477,-73.9120938,71,"CREDITCARD, KEY",19,False,1,0,18,0,False,False,False,False,2022-02-05 22:43:35+00:00
247,3811,27 Ave & 3 St,7132.08,40.77485,-73.9342,71,"CREDITCARD, KEY",19,False,1,0,18,0,False,False,False,False,2022-02-05 23:04:23+00:00
248,3921,Willis Ave & Bruckner Blvd,7691.05,40.805701,-73.925177,71,"CREDITCARD, KEY",19,False,1,0,18,0,False,False,False,False,2022-02-05 23:39:59+00:00
249,4031,Cauldwell Ave & E 158 St,7913.15,40.81989,-73.908351,71,"CREDITCARD, KEY",19,False,1,0,18,0,False,False,False,False,2022-02-05 17:58:47+00:00
250,4103,Ogden Ave & W 165 St,8149.09,40.834457,-73.928381,71,"CREDITCARD, KEY",19,False,1,0,18,0,False,False,False,False,2022-02-05 22:37:36+00:00
251,4129,Anderson Ave & W 164 St,8096.03,40.832057,-73.927421,71,"CREDITCARD, KEY",19,False,0,1,18,0,False,False,False,False,2022-02-05 13:58:25+00:00
252,4142,Barry St & Tiffany St,7844.05,40.816126,-73.891559,71,"CREDITCARD, KEY",19,False,1,0,18,0,False,False,False,False,2022-02-05 18:13:35+00:00
253,4189,Grant Ave & E 169 St,8141.01,40.83579,-73.913741,71,"CREDITCARD, KEY",19,False,0,1,18,0,False,False,False,False,2022-02-05 09:00:18+00:00
254,4207,Sherman Ave & E 166 St,8072.06,40.83130549267296,-73.91744792461395,71,"CREDITCARD, KEY",19,False,1,0,18,0,False,False,False,False,2022-02-05 23:33:31+00:00
255,4228,Waterloo Pl & Crotona Park East,8216.02,40.839194,-73.888587,71,"CREDITCARD, KEY",19,False,1,0,18,0,False,False,False,False,2022-02-05 09:00:18+00:00
256,4313,46 St & 28 Ave,6842.02,40.763328,-73.908782,71,"CREDITCARD, KEY",19,False,1,0,18,0,False,False,False,False,2022-02-05 22:58:19+00:00
257,4611,E Mosholu Pkwy & E 204 St,8748.02,40.8740704,-73.8833650931,71,"CREDITCARD, KEY",19,False,1,0,18,0,False,False,False,False,2022-02-05 09:40:48+00:00
258,3808,24 St & 41 Ave,6505.09,40.752474,-73.939991,71,"CREDITCARD, KEY",19,False,0,0,19,0,False,False,False,False,2022-02-05 23:46:40+00:00
259,3892,38 Ave & 29 St,6538.11,40.75473,-73.93367,71,"CREDITCARD, KEY",19,False,0,0,19,0,False,False,False,False,2022-02-05 22:22:06+00:00
260,3902,Fairview Ave & Linden St,5066.03,40.70694,-73.90632,71,"CREDITCARD, KEY",19,False,0,0,19,0,False,False,False,False,2022-02-05 19:14:32+00:00
261,3935,Amsterdam Ave & W 131 St,7842.16,40.816355,-73.954295,71,"CREDITCARD, KEY",19,False,0,0,19,0,False,False,False,False,2022-02-05 20:17:14+00:00
262,3966,Wales Ave & E 147 St,7751.05,40.811314,-73.907729,71,"CREDITCARD, KEY",19,False,0,0,19,0,False,False,False,False,2022-02-05 08:19:53+00:00
263,4106,Ogden Ave & W 164 St,8115.01,40.832812,-73.929372,71,"CREDITCARD, KEY",19,False,0,0,19,0,False,False,False,False,2022-02-05 17:38:50+00:00
264,4156,Fulton Ave & St. Paul's Pl,8152.03,40.83545,-73.90153,71,"CREDITCARD, KEY",19,False,0,0,19,0,False,False,False,False,2022-02-05 08:40:06+00:00
265,4168,Mount Eden Pkwy & Eastburn Ave,8245.03,40.842675,-73.908544,71,"CREDITCARD, KEY",19,False,0,0,19,0,False,False,False,False,2022-02-05 09:00:17+00:00
266,4212,Franklin Ave & E 169 St,8118.02,40.83171,-73.90208,71,"CREDITCARD, KEY",19,False,0,0,19,0,False,False,False,False,2022-02-05 20:03:12+00:00
267,4230,Charlotte St & Boston Rd,8167.04,40.8358771,-73.8931428,71,"CREDITCARD, KEY",19,False,0,0,19,0,False,False,False,False,2022-02-05 16:05:28+00:00
268,4394,6 Ave & 55 St,3000.08,40.640831,-74.010996,71,"CREDITCARD, KEY",19,False,0,0,19,0,False,False,False,False,2022-02-05 18:55:45+00:00
269,4440,Ft. Washington Ave & W 190 St,8496.01,40.856906,-73.935662,71,"CREDITCARD, KEY",19,False,0,0,19,0,False,False,False,False,2022-02-05 09:20:34+00:00
270,4493,Anthony Ave & E 175 St,8319.01,40.846465,-73.903869,71,"CREDITCARD, KEY",19,False,0,0,19,0,False,False,False,False,2022-02-05 09:26:21+00:00
271,4570,W 176 St & Montgomery Ave,8366.06,40.849629,-73.919205,71,"CREDITCARD, KEY",19,False,0,0,19,0,False,False,False,False,2022-02-05 09:40:47+00:00
272,4576,Goulden Ave & Bedford Park Blvd W,8738.01,40.87387,-73.89533,71,"CREDITCARD, KEY",19,False,0,0,19,0,False,False,False,False,2022-02-05 09:40:46+00:00
273,4608,Grand Concourse & E 205 St,8766.03,40.875531,-73.8863864831,71,"CREDITCARD, KEY",19,False,0,0,19,0,False,False,False,False,2022-02-05 09:40:48+00:00
274,4631,Sedgwick Ave & Hall of Fame Tce,8539.02,40.859532,-73.913303,71,"CREDITCARD, KEY",19,False,0,0,19,0,False,False,False,False,2022-02-05 09:40:49+00:00
275,4446,W 204 St & Nagle Ave,8579.03,40.863211,-73.920827,71,"CREDITCARD, KEY",20,False,20,0,0,0,False,False,False,False,2022-02-05 23:43:59+00:00
276,4164,E 174 St & Longfellow Ave,8144.09,40.836274,-73.884308,71,"CREDITCARD, KEY",20,False,19,0,1,0,False,False,False,False,2022-02-05 17:06:05+00:00
277,4364,Caton Ave & E 7 St,3199.01,40.647718,-73.973663,71,"CREDITCARD, KEY",20,False,19,0,1,0,False,False,False,False,2022-02-05 23:23:21+00:00
278,4399,5 Ave & 66 St,2782.02,40.635679,-74.020005,71,"CREDITCARD, KEY",20,False,19,0,1,0,False,False,False,False,2022-02-05 20:22:44+00:00
279,4180,West Farms Rd & Boone Ave,8076.01,40.830025,-73.886312,71,"CREDITCARD, KEY",20,False,18,0,2,0,False,False,False,False,2022-02-05 12:52:46+00:00
280,3853,Harrison Pl & Porter Ave,5090.06,40.70686,-73.92851,71,"CREDITCARD, KEY",20,False,17,0,3,0,False,False,False,False,2022-02-05 23:53:05+00:00
281,4444,Academy St & Nagle Ave,8579.05,40.862562,-73.922661,71,"CREDITCARD, KEY",20,False,17,0,3,0,False,False,False,False,2022-02-05 18:29:45+00:00
282,4445,10 Ave & W 204 St,8579.09,40.862638,-73.92006,71,"CREDITCARD, KEY",20,False,17,0,3,0,False,False,False,False,2022-02-05 23:06:09+00:00
283,4175,E 171 St & Webster Ave,8190.03,40.838379,-73.905838,71,"CREDITCARD, KEY",20,False,16,0,4,0,False,False,False,False,2022-02-05 08:40:07+00:00
284,3827,Halsey St & Broadway,4366.01,40.68565,-73.91564,71,"CREDITCARD, KEY",20,False,14,1,5,0,False,False,False,False,2022-02-05 23:22:16+00:00
285,3926,5 Ave & W 131 St,7735.05,40.81014,-73.93973,71,"CREDITCARD, KEY",20,False,15,0,5,0,False,False,False,False,2022-02-05 22:18:07+00:00
286,4366,Albemarle Rd & McDonald Ave,3166.03,40.645074,-73.979681,71,"CREDITCARD, KEY",20,False,15,0,5,0,False,False,False,False,2022-02-05 19:56:15+00:00
287,4466,W 212 St & 10 Ave,8647.07,40.8676583895191,-73.91675725579262,71,"CREDITCARD, KEY",20,False,15,0,5,0,False,False,False,False,2022-02-05 18:33:27+00:00
288,4671,Calyer St & Guernsey St,5709.03,40.72755807335852,-73.95505852997303,71,"CREDITCARD, KEY",20,False,14,1,5,0,False,False,False,False,2022-02-05 23:23:07+00:00
289,3311,Columbia St & Kane St,4422.05,40.68763155,-74.0016256,71,"CREDITCARD, KEY",20,False,14,0,6,0,False,False,False,False,2022-02-05 23:43:38+00:00
290,3063,Nostrand Ave & Myrtle Ave,4707.04,40.69527008,-73.95238108,71,"CREDITCARD, KEY",20,False,13,0,7,0,False,False,False,False,2022-02-05 21:14:02+00:00
291,4141,Southern Blvd & Tiffany St,7867.04,40.818185,-73.894143,71,"CREDITCARD, KEY",20,False,13,0,7,0,False,False,False,False,2022-02-05 19:31:27+00:00
292,3773,Knickerbocker Ave & Thames St,5018.06,40.70539,-73.92976,71,"CREDITCARD, KEY",20,False,9,2,9,0,False,False,False,False,2022-02-05 23:59:33+00:00
293,291,Madison St & Montgomery St,5262.09,40.713126,-73.984844,71,"CREDITCARD, KEY",20,False,9,1,10,0,False,False,False,False,2022-02-05 23:46:17+00:00
294,3819,Green St & McGuinness Blvd,5860.02,40.73396,-73.95204,71,"CREDITCARD, KEY",20,False,10,0,10,0,False,False,False,False,2022-02-05 21:38:31+00:00
295,3851,Metropolitan Ave & Stewart Ave,5273.01,40.71401,-73.92793,71,"CREDITCARD, KEY",20,False,10,0,10,0,False,False,False,False,2022-02-05 19:50:37+00:00
296,3997,5 Av & W 139 St,7851.04,40.815484,-73.935856,71,"CREDITCARD, KEY",20,False,9,1,10,0,False,False,False,False,2022-02-05 23:55:41+00:00
297,3964,Brook Ave & E 148 St,7816.14,40.814383,-73.915368,71,"CREDITCARD, KEY",20,False,9,0,11,0,False,False,False,False,2022-02-05 23:58:37+00:00
298,4133,Beck St & Leggett Ave,7807.04,40.815077,-73.899939,71,"CREDITCARD, KEY",20,False,9,0,11,0,False,False,False,False,2022-02-05 21:39:48+00:00
299,4424,4 Ave & Shore Road Dr,2832.03,40.637033,-74.022141,71,"CREDITCARD, KEY",20,False,9,0,11,0,False,False,False,False,2022-02-05 19:00:48+00:00
300,4567,Decatur Ave & Bedford Park Blvd,8664.06,40.86813,-73.88412,71,"CREDITCARD, KEY",20,False,9,0,11,0,False,False,False,False,2022-02-05 09:40:48+00:00
301,3858,Kent St & McGuinness Blvd,5785.10,40.73124,-73.95161,71,"CREDITCARD, KEY",20,False,8,0,12,0,False,False,False,False,2022-02-05 22:48:17+00:00
302,4048,St. Nicholas Ave & W 157 St,8085.09,40.832314,-73.94102,71,"CREDITCARD, KEY",20,False,7,1,12,0,False,False,False,False,2022-02-05 13:19:35+00:00
303,4497,E Tremont Ave & Jerome Ave,8403.02,40.851747,-73.908964,71,"CREDITCARD, KEY",20,False,8,0,12,0,False,False,False,False,2022-02-05 17:59:48+00:00
304,4526,Southwest Park - Jackson St & Observer Hwy,HB401,40.73755127245804,-74.04166370630264,311,"CREDITCARD, KEY",20,False,7,0,13,0,False,False,False,False,2022-02-05 23:47:53+00:00
305,4603,Bailey Ave & Sedgwick Ave,8643.01,40.86571,-73.90857,71,"CREDITCARD, KEY",20,False,6,1,13,0,False,False,False,False,2022-02-05 09:40:48+00:00
306,3909,Madison St & Woodward Ave,4954.07,40.70408,-73.90408,71,"CREDITCARD, KEY",20,False,6,0,14,0,False,False,False,False,2022-02-05 23:25:25+00:00
307,4351,11 Ave & Prospect Ave,3538.09,40.65629,-73.977335,71,"CREDITCARD, KEY",20,False,6,0,14,0,False,False,False,False,2022-02-05 22:40:16+00:00
308,4083,Walton Ave & E 168 St,8179.03,40.83649,-73.918316,71,"CREDITCARD, KEY",20,False,5,0,15,0,False,False,False,False,2022-02-05 18:21:58+00:00
309,4626,Loring Pl North & W 183 St,8555.05,40.8604244,-73.9093359997,71,"CREDITCARD, KEY",20,False,5,0,15,0,False,False,False,False,2022-02-05 17:02:58+00:00
310,3870,Melrose St & Broadway,4801.04,40.697481,-73.935877,71,"CREDITCARD, KEY",20,False,3,1,16,0,False,False,False,False,2022-02-05 23:33:33+00:00
311,4551,Popham Ave & W 174 St,8348.02,40.847746,-73.922079,71,"CREDITCARD, KEY",20,False,4,0,16,0,False,False,False,False,2022-02-05 09:20:36+00:00
312,4599,Goulden Ave & W 197 St,8707.01,40.87156,-73.89714,71,"CREDITCARD, KEY",20,False,4,0,16,0,False,False,False,False,2022-02-05 20:00:18+00:00
313,4088,Nelson Ave & W 172 St,8290.01,40.843965,-73.920999,71,"CREDITCARD, KEY",20,False,2,1,17,0,False,False,False,False,2022-02-05 08:40:06+00:00
314,4191,Intervale Ave & Kelly St,8044.09,40.827301,-73.896372,71,"CREDITCARD, KEY",20,False,3,0,17,0,False,False,False,False,2022-02-05 14:33:59+00:00
315,3886,Menahan St & Onderdonk Ave,5034.03,40.70553,-73.9096,71,"CREDITCARD, KEY",20,False,2,0,18,0,False,False,False,False,2022-02-05 22:55:52+00:00
316,4098,Shakespeare Ave & W 169 St,8198.05,40.839312,-73.922423,71,"CREDITCARD, KEY",20,False,2,0,18,0,False,False,False,False,2022-02-05 20:14:53+00:00
317,4104,Old Broadway & W 133 St,7881.09,40.818212,-73.955277,71,"CREDITCARD, KEY",20,False,1,1,18,0,False,False,False,False,2022-02-05 22:04:10+00:00
318,4177,Prospect Ave & Jennings St,8099.04,40.831762,-73.896853,71,"CREDITCARD, KEY",20,False,1,1,18,0,False,False,False,False,2022-02-05 15:59:02+00:00
319,4204,E 167 St & Bryant Ave,8040.03,40.826706,-73.888719,71,"CREDITCARD, KEY",20,False,1,1,18,0,False,False,False,False,2022-02-05 23:41:41+00:00
320,4349,7 Ave & 20 St,3588.01,40.659053,-73.98854,71,"CREDITCARD, KEY",20,False,1,1,18,0,False,False,False,False,2022-02-05 21:42:53+00:00
321,4487,Pinehurst Ave & W 187 St,8458.03,40.855331,-73.937878,71,"CREDITCARD, KEY",20,False,2,0,18,0,False,False,False,False,2022-02-05 16:38:43+00:00
322,4495,Macombs Rd & W 175 St,8344.04,40.848177,-73.916082,71,"CREDITCARD, KEY",20,False,2,0,18,0,False,False,False,False,2022-02-05 19:02:16+00:00
323,4498,Anthony Ave & E Tremont Ave,8356.04,40.848793,-73.903178,71,"CREDITCARD, KEY",20,False,2,0,18,0,False,False,False,False,2022-02-05 22:45:36+00:00
324,406,Hicks St & Montague St,4645.09,40.69512845,-73.99595065,71,"CREDITCARD, KEY",20,False,1,0,19,0,False,False,False,False,2022-02-05 23:51:10+00:00
325,3822,Bushwick Ave & Forrest St,4914.03,40.70076,-73.93641,71,"CREDITCARD, KEY",20,False,1,0,19,0,False,False,False,False,2022-02-05 23:51:52+00:00
326,3861,Menahan St & Wyckoff Ave,4890.11,40.70113,-73.91422,71,"CREDITCARD, KEY",20,False,1,0,19,0,False,False,False,False,2022-02-05 22:22:14+00:00
327,4035,Broadway & W 153 St,8089.05,40.831327,-73.946665,71,"CREDITCARD, KEY",20,False,1,0,19,0,False,False,False,False,2022-02-05 23:03:53+00:00
328,4345,Windsor Pl & 8 Ave,3620.02,40.660906,-73.983074,71,"CREDITCARD, KEY",20,False,1,0,19,0,False,False,False,False,2022-02-05 21:59:07+00:00
329,4542,Andrews Ave S & W 179 St,8483.02,40.855156,-73.91278,71,"CREDITCARD, KEY",20,False,1,0,19,0,False,False,False,False,2022-02-05 09:40:45+00:00
330,4604,Jerome Ave & W 184 St,8550.01,40.860814,-73.902541,71,"CREDITCARD, KEY",20,False,1,0,19,0,False,False,False,False,2022-02-05 09:40:48+00:00
331,4627,Aqueduct Ave & North St,8535.09,40.8604787,-73.9057169936,71,"CREDITCARD, KEY",20,False,1,0,19,0,False,False,False,False,2022-02-05 09:40:48+00:00
332,4634,Jerome Ave & E 198 St,8720.02,40.87144520687118,-73.89289632439613,71,"CREDITCARD, KEY",20,False,1,0,19,0,False,False,False,False,2022-02-05 18:41:26+00:00
333,3891,Irving Ave & Palmetto St,4775.01,40.698,-73.9127,71,"CREDITCARD, KEY",20,False,0,0,20,0,False,False,False,False,2022-02-05 23:20:59+00:00
334,3980,Amsterdam Ave & W 152 St,8069.01,40.829523,-73.944279,71,"CREDITCARD, KEY",20,False,0,0,20,0,False,False,False,False,2022-02-05 21:54:33+00:00
335,4025,Edgecombe Ave & W 150 St,8049.05,40.826881,-73.941427,71,"CREDITCARD, KEY",20,False,0,0,20,0,False,False,False,False,2022-02-05 16:26:20+00:00
336,4149,E 167 St & Franklin Ave,8048.01,40.82895,-73.90521,71,"CREDITCARD, KEY",20,False,0,0,20,0,False,False,False,False,2022-02-05 15:50:39+00:00
337,4563,Bainbridge Ave & E 196 St,8615.01,40.86648,-73.89042,71,"CREDITCARD, KEY",20,False,0,0,20,0,False,False,False,False,2022-02-05 09:40:48+00:00
338,4628,Aqueduct Ave & W 190 St,8605.06,40.8649213,-73.9024238,71,"CREDITCARD, KEY",20,False,0,0,20,0,False,False,False,False,2022-02-05 23:12:33+00:00
339,3845,Irving Ave & Harman St,4856.05,40.70108,-73.9179,71,"CREDITCARD, KEY",21,False,21,0,0,0,False,False,False,False,2022-02-05 23:59:11+00:00
340,4004,Edgecombe Ave & W 141 St,7915.11,40.820681,-73.945144,71,"CREDITCARD, KEY",21,False,21,0,0,0,False,False,False,False,2022-02-05 22:15:49+00:00
341,4152,Fulton Ave & E 168 St,8084.03,40.830471,-73.904556,71,"CREDITCARD, KEY",21,False,21,0,0,0,False,False,False,False,2022-02-05 16:08:18+00:00
342,4199,River Ave & McClellan St,8111.07,40.83406,-73.92243,71,"CREDITCARD, KEY",21,False,21,0,0,0,False,False,False,False,2022-02-05 21:57:46+00:00
343,4492,Featherbed Ln & Jerome Ave,8285.11,40.845505,-73.914311,71,"CREDITCARD, KEY",21,False,20,1,0,0,False,False,False,False,2022-02-05 20:49:10+00:00
344,3340,Wolcott St & Dwight St,4054.02,40.6753274,-74.0100698,71,"CREDITCARD, KEY",21,False,19,1,1,0,False,False,False,False,2022-02-05 23:07:01+00:00
345,3925,E 138 St & Canal St W,7803.03,40.812304,-73.929153,71,"CREDITCARD, KEY",21,False,20,0,1,0,False,False,False,False,2022-02-05 22:38:27+00:00
346,4021,E 138 St & Grand Concourse,7803.08,40.813224,-73.930605,71,"CREDITCARD, KEY",21,False,20,0,1,0,False,False,False,False,2022-02-05 23:51:52+00:00
347,4095,E 165 St & Jerome Ave,8130.02,40.83263,-73.925101,71,"CREDITCARD, KEY",21,False,20,0,1,0,False,False,False,False,2022-02-05 21:43:16+00:00
348,4271,31 Ave & 61 St,6654.05,40.757525,-73.901614,71,"CREDITCARD, KEY",21,False,19,1,1,0,False,False,False,False,2022-02-05 22:01:54+00:00
349,4275,21 Ave & Shore Blvd,7342.01,40.783956,-73.916894,71,"CREDITCARD, KEY",21,False,20,0,1,0,False,False,False,False,2022-02-05 22:54:12+00:00
350,4356,Greenwood Ave & E 4 St,3353.04,40.650739,-73.977739,71,"CREDITCARD, KEY",21,False,20,0,1,0,False,False,False,False,2022-02-05 23:57:33+00:00
351,4360,Caton Ave & Argyle Rd,3303.01,40.649681,-73.967829,71,"CREDITCARD, KEY",21,False,20,0,1,0,False,False,False,False,2022-02-05 23:52:03+00:00
352,4367,Chester Ave & 12 Ave,3135.04,40.644367,-73.984276,71,"CREDITCARD, KEY",21,False,20,0,1,0,False,False,False,False,2022-02-05 17:53:54+00:00
353,4456,Nagle Ave & Ellwood St,8528.05,40.86012,-73.928489,71,"CREDITCARD, KEY",21,False,20,0,1,0,False,False,False,False,2022-02-05 21:55:38+00:00
354,4459,Sherman Ave & Thayer St,8583.02,40.863124,-73.926994,71,"CREDITCARD, KEY",21,False,19,1,1,0,False,False,False,False,2022-02-05 23:07:08+00:00
355,3319,14 St & 5 Ave,3771.06,40.666287,-73.98895053,71,"CREDITCARD, KEY",21,False,15,4,2,0,False,False,False,False,2022-02-05 23:53:02+00:00
356,3498,Pleasant Ave & E 120 St,7579.01,40.7974772,-73.9311847,71,"CREDITCARD, KEY",21,False,19,0,2,0,False,False,False,False,2022-02-05 23:17:34+00:00
357,3591,21 St & 31 Dr,6865.03,40.7659,-73.930819,71,"CREDITCARD, KEY",21,False,19,0,2,0,False,False,False,False,2022-02-05 23:29:25+00:00
358,4086,Inwood Ave & W 170 St,8233.01,40.840536,-73.919228,71,"CREDITCARD, KEY",21,False,19,0,2,0,False,False,False,False,2022-02-05 20:24:18+00:00
359,4600,Marion Ave & Mosholu Pkwy,8699.01,40.8704956,-73.8818756582,71,"CREDITCARD, KEY",21,False,18,1,2,0,False,False,False,False,2022-02-05 21:43:40+00:00
360,3352,Sigourney St & Columbia St,3940.04,40.67267243410948,-74.0087952464819,71,"CREDITCARD, KEY",21,False,17,1,3,0,False,False,False,False,2022-02-05 23:47:30+00:00
361,4080,Jerome Ave & E 164 St,8096.02,40.831444,-73.926226,71,"CREDITCARD, KEY",21,False,18,0,3,0,False,False,False,False,2022-02-05 20:35:02+00:00
362,4099,E 169 St & Webster Ave,8122.04,40.834015,-73.908863,71,"CREDITCARD, KEY",21,False,17,1,3,0,False,False,False,False,2022-02-05 18:47:48+00:00
363,4277,20 Ave & 42 St,7163.07,40.775415,-73.900063,71,"CREDITCARD, KEY",21,False,18,0,3,0,False,False,False,False,2022-02-05 23:52:31+00:00
364,4343,3 Ave & 17 St,3779.02,40.666168,-73.995549,71,"CREDITCARD, KEY",21,False,18,0,3,0,False,False,False,False,2022-02-05 17:39:44+00:00
365,4347,21 St & 4 Ave,3668.04,40.662584,-73.995554,71,"CREDITCARD, KEY",21,False,17,1,3,0,False,False,False,False,2022-02-05 21:17:18+00:00
366,4365,E 3 St & Church Ave,3046.03,40.643817,-73.977433,71,"CREDITCARD, KEY",21,False,18,0,3,0,False,False,False,False,2022-02-05 20:58:42+00:00
367,4530,Madison St & 10 St,HB503,40.749943254122456,-74.03586477041245,311,"CREDITCARD, KEY",21,False,18,0,3,0,False,False,False,False,2022-02-05 23:03:06+00:00
368,3394,Columbia St & W 9 St,4086.05,40.6769993,-74.00647134,71,"CREDITCARD, KEY",21,False,17,0,4,0,False,False,False,False,2022-02-05 21:58:27+00:00
369,4287,Steinway St & Ditmars Blvd,7074.01,40.772717,-73.906127,71,"CREDITCARD, KEY",21,False,2,0,4,15,False,False,False,False,2022-02-05 23:28:32+00:00
370,4443,Seaman Ave & Beak St,8650.11,40.867505,-73.926363,71,"CREDITCARD, KEY",21,False,16,1,4,0,False,False,False,False,2022-02-05 17:38:03+00:00
371,4327,21 St & 21 Ave,7314.03,40.782465,-73.914527,71,"CREDITCARD, KEY",21,False,16,0,5,0,False,False,False,False,2022-02-05 19:46:57+00:00
372,4468,W 218 St & Indian Rd,8732.04,40.873054589370895,-73.91837194561958,71,"CREDITCARD, KEY",21,False,16,0,5,0,False,False,False,False,2022-02-05 09:20:34+00:00
373,4521,Madison St & 1 St,HB402,40.73879,-74.0393,311,"CREDITCARD, KEY",21,False,16,0,5,0,False,False,False,False,2022-02-05 23:41:14+00:00
374,4528,8 St & Washington St,HB603,40.74598388291562,-74.02819901704788,311,"CREDITCARD, KEY",21,False,16,0,5,0,False,False,False,False,2022-02-05 23:51:57+00:00
375,4257,43 St & 37 Ave,6401.01,40.750181,-73.919998,71,"CREDITCARD, KEY",21,False,15,0,6,0,False,False,False,False,2022-02-05 23:10:32+00:00
376,4437,Broadway & W 185 St,8416.07,40.852538,-73.93441,71,"CREDITCARD, KEY",21,False,14,1,6,0,False,False,False,False,2022-02-05 23:23:36+00:00
377,4674,45 Ave & 21 St,6319.07,40.74737075646803,-73.94777297973631,71,"CREDITCARD, KEY",21,False,15,0,6,0,False,False,False,False,2022-02-05 23:31:02+00:00
378,3608,5 St & 51 Ave,6137.04,40.7423737,-73.9566,71,"CREDITCARD, KEY",21,False,13,1,7,0,False,False,False,False,2022-02-05 23:28:36+00:00
379,3939,Willow Ave & E 133 St,7626.02,40.800933,-73.913863,71,"CREDITCARD, KEY",21,False,14,0,7,0,False,False,False,False,2022-02-05 20:01:16+00:00
380,4201,Clay Ave & Claremont Pkwy,8225.05,40.83999,-73.90549,71,"CREDITCARD, KEY",21,False,13,1,7,0,False,False,False,False,2022-02-05 22:24:33+00:00
381,3982,Bergen Ave & E 152 St,7858.02,40.817166,-73.914737,71,"CREDITCARD, KEY",21,False,13,0,8,0,False,False,False,False,2022-02-05 23:55:10+00:00
382,4323,20 Ave & 33 St,7226.03,40.779399,-73.905708,71,"CREDITCARD, KEY",21,False,13,0,8,0,False,False,False,False,2022-02-05 21:28:38+00:00
383,3061,Throop Ave & Myrtle Ave,4697.01,40.69622937,-73.94371094,71,"CREDITCARD, KEY",21,False,10,2,9,0,False,False,False,False,2022-02-05 22:49:16+00:00
384,4174,3 Ave & E 170 St,8137.06,40.834857,-73.903743,71,"CREDITCARD, KEY",21,False,12,0,9,0,False,False,False,False,2022-02-05 16:43:25+00:00
385,4368,12 Ave & 36 St,3056.05,40.643546,-73.986418,71,"CREDITCARD, KEY",21,False,12,0,9,0,False,False,False,False,2022-02-05 18:09:40+00:00
386,4523,Church Sq Park - 5 St & Park Ave,HB601,40.74265933273143,-74.03223305940628,311,"CREDITCARD, KEY",21,False,12,0,9,0,False,False,False,False,2022-02-05 23:33:57+00:00
387,4601,E Burnside Ave & Ryer Ave,8397.02,40.850535,-73.901318,71,"CREDITCARD, KEY",21,False,12,0,9,0,False,False,False,False,2022-02-05 22:17:19+00:00
388,4662,23 Rd & 31 St,7082.14,40.77336750284339,-73.91382560133934,71,"CREDITCARD, KEY",21,False,12,0,9,0,False,False,False,False,2022-02-05 19:18:04+00:00
389,3525,23 Ave & 27 St,7178.02,40.776165,-73.9153175,71,"CREDITCARD, KEY",21,False,11,0,10,0,False,False,False,False,2022-02-05 22:14:19+00:00
390,3605,31 Ave & Crescent St,6893.10,40.7658346,-73.9265474,71,"CREDITCARD, KEY",21,False,9,2,10,0,False,False,False,False,2022-02-05 23:58:40+00:00
391,4018,Broadway & W 131 St,7865.09,40.817555,-73.957163,71,"CREDITCARD, KEY",21,False,10,1,10,0,False,False,False,False,2022-02-05 23:57:05+00:00
392,4091,Jerome Ave & Ogden Ave,8081.01,40.829797,-73.931015,71,"CREDITCARD, KEY",21,False,10,1,10,0,False,False,False,False,2022-02-05 18:10:41+00:00
393,4294,76 St & 21 Ave,7032.02,40.77028,-73.893675,71,"CREDITCARD, KEY",21,False,11,0,10,0,False,False,False,False,2022-02-05 19:58:06+00:00
394,3764,Bushwick Ave & McKibbin St,5027.02,40.705517,-73.93936,71,"CREDITCARD, KEY",21,False,9,1,11,0,False,False,False,False,2022-02-05 21:03:02+00:00
395,4109,Amsterdam Ave & W 183 St,8353.09,40.84925,-73.93022,71,"CREDITCARD, KEY",21,False,10,0,11,0,False,False,False,False,2022-02-05 23:54:49+00:00
396,4143,Hunts Point Ave & Bryant Ave,7820.05,40.813991,-73.8855,71,"CREDITCARD, KEY",21,False,9,1,11,0,False,False,False,False,2022-02-05 15:43:03+00:00
397,4398,65 St & 2 Ave,3019.02,40.640493,-74.02564,71,"CREDITCARD, KEY",21,False,10,0,11,0,False,False,False,False,2022-02-05 15:04:36+00:00
398,4467,10 Ave & W 215 St,8679.03,40.86932465640094,-73.91519755125046,71,"CREDITCARD, KEY",21,False,10,0,11,0,False,False,False,False,2022-02-05 22:40:32+00:00
399,3887,Flushing Ave & Woodward Ave,5225.02,40.71246,-73.91873,71,"CREDITCARD, KEY",21,False,7,2,12,0,False,False,False,False,2022-02-05 22:07:40+00:00
400,4193,W 181 St & Riverside Dr,8381.04,40.85168,-73.94186,71,"CREDITCARD, KEY",21,False,9,0,12,0,False,False,False,False,2022-02-05 19:56:55+00:00
401,4314,30 Ave & 47 St,6774.13,40.761294,-73.909562,71,"CREDITCARD, KEY",21,False,8,1,12,0,False,False,False,False,2022-02-05 23:06:24+00:00
402,4352,McDonald Ave & Vanderbilt St,3394.03,40.651654,-73.981231,71,"CREDITCARD, KEY",21,False,9,0,12,0,False,False,False,False,2022-02-05 21:55:50+00:00
403,4439,Amsterdam Ave & W 189 St,8432.04,40.853142,-73.927094,71,"CREDITCARD, KEY",21,False,8,1,12,0,False,False,False,False,2022-02-05 23:07:59+00:00
404,4451,W 190 St & Broadway,8474.02,40.85648733523576,-73.93296986818314,71,"CREDITCARD, KEY",21,False,9,0,12,0,False,False,False,False,2022-02-05 21:33:38+00:00
405,3756,White St & Moore St,4987.06,40.704508,-73.9351,71,"CREDITCARD, KEY",21,False,7,1,13,0,False,False,False,False,2022-02-05 23:41:34+00:00
406,3770,Central Ave & Flushing Ave,4947.04,40.702831,-73.9333,71,"CREDITCARD, KEY",21,False,7,0,14,0,False,False,False,False,2022-02-05 21:23:01+00:00
407,4203,Westchester Ave & Southern Blvd,8004.03,40.824956,-73.891677,71,"CREDITCARD, KEY",21,False,7,0,14,0,False,False,False,False,2022-02-05 21:57:01+00:00
408,4247,Riverside Dr & W 153 St,8108.02,40.832164,-73.949702,71,"CREDITCARD, KEY",21,False,6,1,14,0,False,False,False,False,2022-02-05 23:41:35+00:00
409,4296,Steinway St & 19 Ave,7220.01,40.778089,-73.899558,71,"CREDITCARD, KEY",21,False,7,0,14,0,False,False,False,False,2022-02-05 15:59:55+00:00
410,4332,Morris Ave & E 163 St,8036.05,40.827230499624726,-73.91765579597632,71,"CREDITCARD, KEY",21,False,7,0,14,0,False,False,False,False,2022-02-05 20:43:09+00:00
411,4471,Amsterdam Ave & W 186 St,8394.15,40.851113,-73.928808,71,"CREDITCARD, KEY",21,False,7,0,14,0,False,False,False,False,2022-02-05 17:22:49+00:00
412,3326,Clinton St & Centre St,4045.01,40.67434,-74.00194698,71,"CREDITCARD, KEY",21,False,6,0,15,0,False,False,False,False,2022-02-05 18:46:41+00:00
413,3673,Dean St & Franklin Ave,4107.13,40.67759206937376,-73.955637216568,71,"CREDITCARD, KEY",21,False,6,0,15,0,False,False,False,False,2022-02-05 23:20:57+00:00
414,3975,Brook Ave & E 157 St,7935.07,40.820713,-73.911759,71,"CREDITCARD, KEY",21,False,5,1,15,0,False,False,False,False,2022-02-05 08:40:03+00:00
415,4094,Park Ave & E 162 St,8016.07,40.825716,-73.915585,71,"CREDITCARD, KEY",21,False,6,0,15,0,False,False,False,False,2022-02-05 23:36:29+00:00
416,4198,E 161 St & Park Ave,7979.17,40.824811,-73.916407,71,"CREDITCARD, KEY",21,False,6,0,15,0,False,False,False,False,2022-02-05 18:45:18+00:00
417,4288,Steinway St & 21 Ave,7137.04,40.774798,-73.903787,71,"CREDITCARD, KEY",21,False,6,0,15,0,False,False,False,False,2022-02-05 21:06:52+00:00
418,4508,E Tremont Ave & E 176 St,8356.02,40.847798,-73.901883,71,"CREDITCARD, KEY",21,False,6,0,15,0,False,False,False,False,2022-02-05 18:30:15+00:00
419,3047,Halsey St & Tompkins Ave,4319.07,40.6823687,-73.944118,71,"CREDITCARD, KEY",21,False,4,1,16,0,False,False,False,False,2022-02-05 23:46:43+00:00
420,3050,Putnam Ave & Throop Ave,4392.04,40.6851532,-73.94111,71,"CREDITCARD, KEY",21,False,5,0,16,0,False,False,False,False,2022-02-05 23:59:36+00:00
421,3422,Columbia St & Degraw St,4422.04,40.6859296,-74.00242364,71,"CREDITCARD, KEY",21,False,5,0,16,0,False,False,False,False,2022-02-05 23:34:02+00:00
422,3603,31 Ave & 30 St,6857.09,40.7647,-73.9240312,71,"CREDITCARD, KEY",21,False,5,0,16,0,False,False,False,False,2022-02-05 23:45:02+00:00
423,4169,Morris Ave & E 171 St,8209.01,40.83899,-73.9109,71,"CREDITCARD, KEY",21,False,5,0,16,0,False,False,False,False,2022-02-05 20:21:37+00:00
424,4315,46 St & 30 Rd,6703.06,40.76072,-73.910989,71,"CREDITCARD, KEY",21,False,4,0,16,1,False,False,False,False,2022-02-05 21:51:57+00:00
425,3995,5 Ave & E 135 St,7769.06,40.812191,-73.937838,71,"CREDITCARD, KEY",21,False,3,1,17,0,False,False,False,False,2022-02-05 23:07:48+00:00
426,4090,Grand Concourse & E 156 St,7984.04,40.823429,-73.924689,71,"CREDITCARD, KEY",21,False,4,0,17,0,False,False,False,False,2022-02-05 08:40:05+00:00
427,4105,Concourse Village West & E 156 St,7962.01,40.823162,-73.923267,71,"CREDITCARD, KEY",21,False,4,0,17,0,False,False,False,False,2022-02-05 08:40:06+00:00
428,4252,Home St & Westchester Ave,8020.01,40.827629,-73.886659,71,"CREDITCARD, KEY",21,False,4,0,17,0,False,False,False,False,2022-02-05 22:54:56+00:00
429,4614,Grand Concourse & E Mosholu Pkwy S,8795.03,40.877964,-73.8847550291,71,"CREDITCARD, KEY",21,False,4,0,17,0,False,False,False,False,2022-02-05 09:40:47+00:00
430,3297,6 St & 7 Ave,3834.10,40.6686627,-73.97988067,71,"CREDITCARD, KEY",21,False,1,2,18,0,False,False,False,False,2022-02-05 23:19:33+00:00
431,3568,34 St & 35 Ave,6605.08,40.7569332,-73.9262231,71,"CREDITCARD, KEY",21,False,2,1,18,0,False,False,False,False,2022-02-05 23:36:52+00:00
432,4151,3 Ave & E 169 St,8103.05,40.832678,-73.905158,71,"CREDITCARD, KEY",21,False,2,1,18,0,False,False,False,False,2022-02-05 16:47:53+00:00
433,4390,46 St & 6 Ave,3161.02,40.645921,-74.005708,71,"CREDITCARD, KEY",21,False,3,0,18,0,False,False,False,False,2022-02-05 17:20:10+00:00
434,3356,Amsterdam Ave & W 66 St,7149.05,40.7746671,-73.98470567,71,"CREDITCARD, KEY",21,False,1,1,19,0,False,False,False,False,2022-02-05 23:56:08+00:00
435,3578,Park Pl & Franklin Ave,4033.06,40.6741806,-73.9564947,71,"CREDITCARD, KEY",21,False,2,0,19,0,False,False,False,False,2022-02-05 23:38:08+00:00
436,3606,49 Ave & 21 St,6128.04,40.74252,-73.948852,71,"CREDITCARD, KEY",21,False,2,0,19,0,False,False,False,False,2022-02-05 21:10:11+00:00
437,3765,Bushwick Ave & Stagg St,5140.06,40.709897,-73.94008,71,"CREDITCARD, KEY",21,False,2,0,19,0,False,False,False,False,2022-02-05 23:28:10+00:00
438,3946,St Nicholas Ave & W 137 St,7898.03,40.818477,-73.947568,71,"CREDITCARD, KEY",21,False,2,0,19,0,False,False,False,False,2022-02-05 22:29:52+00:00
439,4050,W 159 St & Edgecombe Ave,8119.05,40.833303,-73.939326,71,"CREDITCARD, KEY",21,False,1,1,19,0,False,False,False,False,2022-02-05 08:40:04+00:00
440,4081,Gerard Ave & E 165 St,8111.04,40.83173,-73.922394,71,"CREDITCARD, KEY",21,False,1,1,19,0,False,False,False,False,2022-02-05 14:26:54+00:00
441,4173,Longfellow Ave & E 165 St,7983.04,40.825322,-73.887729,71,"CREDITCARD, KEY",21,False,1,1,19,0,False,False,False,False,2022-02-05 19:06:17+00:00
442,4251,Nelson Ave & 167 St,8183.08,40.83670566862804,-73.92608866095543,71,"CREDITCARD, KEY",21,False,1,0,19,1,False,False,False,False,2022-02-05 23:58:31+00:00
443,4506,W Tremont Ave & Grand Ave,8384.03,40.850036,-73.912785,71,"CREDITCARD, KEY",21,False,2,0,19,0,False,False,False,False,2022-02-05 09:40:47+00:00
444,3528,Steinway St & 23 Ave,7009.02,40.7713937,-73.9077436,71,"CREDITCARD, KEY",21,False,1,0,20,0,False,False,False,False,2022-02-05 23:11:27+00:00
445,3546,Pacific St & Classon Ave,4148.07,40.6791944,-73.9587903,71,"CREDITCARD, KEY",21,False,1,0,20,0,False,False,False,False,2022-02-05 23:47:07+00:00
446,3960,Hamilton Pl & W 140 St,7959.18,40.822756,-73.951346,71,"CREDITCARD, KEY",21,False,1,0,20,0,False,False,False,False,2022-02-05 23:25:20+00:00
447,3968,Prospect Ave & E 151 St,7830.03,40.814232,-73.903927,71,"CREDITCARD, KEY",21,False,1,0,20,0,False,False,False,False,2022-02-05 21:40:19+00:00
448,4400,46 St & 7 Ave,3117.05,40.644743,-74.003754,71,"CREDITCARD, KEY",21,False,1,0,20,0,False,False,False,False,2022-02-05 22:15:19+00:00
449,4515,W Tremont Ave & Montgomery Ave,8407.03,40.851788,-73.916418,71,"CREDITCARD, KEY",21,False,0,1,20,0,False,False,False,False,2022-02-05 09:20:36+00:00
450,4585,Morris Ave & E Burnside Ave,8441.01,40.85322,-73.90546,71,"CREDITCARD, KEY",21,False,1,0,20,0,False,False,False,False,2022-02-05 09:40:46+00:00
451,4623,Buchanan Pl & Grand Ave,8535.01,40.85834,-73.90626,71,"CREDITCARD, KEY",21,False,1,0,20,0,False,False,False,False,2022-02-05 09:40:48+00:00
452,3080,S 4 St & Rodney St,5156.05,40.70934,-73.95608,71,"CREDITCARD, KEY",21,False,0,0,21,0,False,False,False,False,2022-02-05 23:38:54+00:00
453,3942,Broadway & W 133 St,7903.02,40.8190344,-73.956156,71,"CREDITCARD, KEY",21,False,0,0,21,0,False,False,False,False,2022-02-05 22:14:59+00:00
454,3945,Amsterdam Ave & W 136 St,7920.05,40.819746,-73.951819,71,"CREDITCARD, KEY",21,False,0,0,21,0,False,False,False,False,2022-02-05 19:40:41+00:00
455,4171,Boston Rd & E 167 St,8048.04,40.828199,-73.903719,71,"CREDITCARD, KEY",21,False,0,0,21,0,False,False,False,False,2022-02-05 08:40:07+00:00
456,4560,Grand Concourse & E 192 St,8601.04,40.86448,-73.89522,71,"CREDITCARD, KEY",21,False,0,0,21,0,False,False,False,False,2022-02-05 09:40:47+00:00
457,4564,Grand Concourse & E 197 St,8667.01,40.86945,-73.89148,71,"CREDITCARD, KEY",21,False,0,0,21,0,False,False,False,False,2022-02-05 09:40:47+00:00
458,4578,Grand Concourse & E 199 St,8703.05,40.87142,-73.88839,71,"CREDITCARD, KEY",21,False,0,0,21,0,False,False,False,False,2022-02-05 09:40:45+00:00
459,4636,W 192 St & University Ave,8639.01,40.866899,-73.901942,71,"CREDITCARD, KEY",21,False,0,0,21,0,False,False,False,False,2022-02-05 16:38:28+00:00
460,3780,Wyckoff Av & Stanhope St,4931.05,40.703545,-73.917775,71,"CREDITCARD, KEY",22,False,20,2,0,0,False,False,False,False,2022-02-05 22:06:39+00:00
461,3187,Warren St,JC006,40.7211236,-74.03805095,70,"CREDITCARD, KEY",22,False,21,0,1,0,False,False,False,False,2022-02-05 22:54:55+00:00
462,4113,Icahn Stadium,7514.01,40.79346,-73.92389,71,"CREDITCARD, KEY",22,False,21,0,1,0,False,False,False,False,2022-02-05 17:23:04+00:00
463,4392,52 St & 1 Ave,3253.01,40.649292,-74.020105,71,"CREDITCARD, KEY",22,False,21,0,1,0,False,False,False,False,2022-02-05 21:26:00+00:00
464,3214,Essex Light Rail,JC038,40.7127742,-74.0364857,70,"CREDITCARD, KEY",22,False,19,1,2,0,False,False,False,False,2022-02-05 22:01:42+00:00
465,4490,Featherbed Ln & Nelson Ave,8327.15,40.846011,-73.919637,71,"CREDITCARD, KEY",22,False,19,0,3,0,False,False,False,False,2022-02-05 19:54:24+00:00
466,4000,Lenox Ave & W 144 St,7910.01,40.819783,-73.936521,71,"CREDITCARD, KEY",22,False,18,0,4,0,False,False,False,False,2022-02-05 22:31:50+00:00
467,4016,Adam Clayton Powell Blvd & W 130 St,7774.02,40.812346,-73.946168,71,"CREDITCARD, KEY",22,False,18,0,4,0,False,False,False,False,2022-02-05 21:37:37+00:00
468,3209,Brunswick St,JC023,40.7241765,-74.0506564,70,"CREDITCARD, KEY",22,False,17,0,5,0,False,False,False,False,2022-02-05 22:54:10+00:00
469,4654,City Hall - Washington St & 1 St,HB105,40.73736,-74.03097,311,"CREDITCARD, KEY",22,False,17,0,5,0,False,False,False,False,2022-02-05 23:10:20+00:00
470,3511,Adam Clayton Powell Blvd & W 115 St,7643.18,40.802535,-73.9532423,71,"CREDITCARD, KEY",22,False,16,0,6,0,False,False,False,False,2022-02-05 23:11:42+00:00
471,4395,6 Ave & 60 St,2912.08,40.638196,-74.013821,71,"CREDITCARD, KEY",22,False,16,0,6,0,False,False,False,False,2022-02-05 09:20:33+00:00
472,3194,McGinley Square,JC055,40.7253399253558,-74.06762212514877,70,"CREDITCARD, KEY",22,False,15,0,7,0,False,False,False,False,2022-02-05 23:09:06+00:00
473,3211,Newark Ave,JC032,40.72152515,-74.046304543,70,"CREDITCARD, KEY",22,False,15,0,7,0,False,False,False,False,2022-02-05 22:31:21+00:00
474,3911,Wyckoff St & Nevins St,4290.08,40.683426,-73.984275,71,"CREDITCARD, KEY",22,False,15,0,7,0,False,False,False,False,2022-02-05 23:45:45+00:00
475,4427,Frederick Douglass Blvd & W 139 St,7876.07,40.81900581806558,-73.94476890563965,71,"CREDITCARD, KEY",22,False,15,0,7,0,False,False,False,False,2022-02-05 22:30:21+00:00
476,4087,W 170 St & University Ave,8254.01,40.84207,-73.926075,71,"CREDITCARD, KEY",22,False,14,0,8,0,False,False,False,False,2022-02-05 21:09:55+00:00
477,4463,W 204 St & Vermilyea Ave,8632.07,40.866141,-73.922648,71,"CREDITCARD, KEY",22,False,13,1,8,0,False,False,False,False,2022-02-05 18:59:25+00:00
478,3828,Eldert St & Bushwick Ave,4399.03,40.68652,-73.91321,71,"CREDITCARD, KEY",22,False,13,0,9,0,False,False,False,False,2022-02-05 23:27:31+00:00
479,4377,Dahill Rd & 12 Ave,3208.07,40.646037,-73.980963,71,"CREDITCARD, KEY",22,False,12,1,9,0,False,False,False,False,2022-02-05 23:32:12+00:00
480,4534,7 St & Monroe St,HB304,40.74641264837719,-74.03797701001167,311,"CREDITCARD, KEY",22,False,11,1,10,0,False,False,False,False,2022-02-05 23:40:00+00:00
481,3192,Liberty Light Rail,JC052,40.7112423,-74.0557013,70,"CREDITCARD, KEY",22,False,11,0,11,0,False,False,False,False,2022-02-05 23:30:09+00:00
482,3205,JC Medical Center,JC011,40.71653978099194,-74.0496379137039,70,"CREDITCARD, KEY",22,False,11,0,11,0,False,False,False,False,2022-02-05 22:32:54+00:00
483,3456,Jackson St & Leonard St,5332.10,40.71638031973561,-73.94821286201477,71,"CREDITCARD, KEY",22,False,10,1,11,0,False,False,False,False,2022-02-05 23:17:16+00:00
484,4071,Broadway & W 160 St,8157.06,40.835775,-73.9434,71,"CREDITCARD, KEY",22,False,10,1,11,0,False,False,False,False,2022-02-05 22:17:46+00:00
485,4130,Morris Ave & McClellan St,8107.10,40.831584,-73.9149,71,"CREDITCARD, KEY",22,False,10,1,11,0,False,False,False,False,2022-02-05 23:51:05+00:00
486,3212,Christ Hospital,JC034,40.734785818,-74.050443636,70,"CREDITCARD, KEY",22,False,10,0,12,0,False,False,False,False,2022-02-05 22:52:27+00:00
487,3213,Van Vorst Park,JC035,40.71848892,-74.047726625,70,"CREDITCARD, KEY",22,False,10,0,12,0,False,False,False,False,2022-02-05 23:26:13+00:00
488,4017,E 138 St & 5 Av,7809.13,40.81449,-73.936153,71,"CREDITCARD, KEY",22,False,10,0,12,0,False,False,False,False,2022-02-05 23:34:26+00:00
489,4302,21 St & 23 Ave,7210.07,40.778557,-73.919046,71,"CREDITCARD, KEY",22,False,10,0,12,0,False,False,False,False,2022-02-05 16:59:26+00:00
490,3185,City Hall,JC003,40.7177325,-74.043845,70,"CREDITCARD, KEY",22,False,9,0,13,0,False,False,False,False,2022-02-05 23:23:31+00:00
491,3855,Frost St & Debevoise Ave,5433.04,40.71882,-73.93948,71,"CREDITCARD, KEY",22,False,8,0,14,0,False,False,False,False,2022-02-05 23:40:15+00:00
492,3787,Dock 72 Way & Market St,4804.02,40.69985,-73.97141,71,"CREDITCARD, KEY",22,False,6,1,15,0,False,False,False,False,2022-02-05 23:23:46+00:00
493,3985,E 160 St & Tinton Ave,7931.05,40.820302,-73.903944,71,"CREDITCARD, KEY",22,False,7,0,15,0,False,False,False,False,2022-02-05 21:36:21+00:00
494,4020,Bradhurst Ave & W 148 St,7992.04,40.825125,-73.941616,71,"CREDITCARD, KEY",22,False,7,0,15,0,False,False,False,False,2022-02-05 20:45:57+00:00
495,3830,Halsey St & Evergreen Ave,4474.01,40.68858,-73.91227,71,"CREDITCARD, KEY",22,False,4,0,18,0,False,False,False,False,2022-02-05 21:28:27+00:00
496,3896,Madison St & Seneca Ave,4880.11,40.70183,-73.90625,71,"CREDITCARD, KEY",22,False,4,0,18,0,False,False,False,False,2022-02-05 19:02:53+00:00
497,3989,Willis Ave & E 137 St,7726.02,40.808384,-73.923604,71,"CREDITCARD, KEY",22,False,3,0,19,0,False,False,False,False,2022-02-05 21:50:08+00:00
498,4014,Riverside Dr & W 148 St,8054.04,40.829114,-73.950426,71,"CREDITCARD, KEY",22,False,3,0,19,0,False,False,False,False,2022-02-05 23:54:36+00:00
499,3835,Knickerbocker Ave & Hancock St,4663.02,40.69385,-73.90974,71,"CREDITCARD, KEY",22,False,1,1,20,0,False,False,False,False,2022-02-05 16:48:08+00:00
500,4520,Mama Johnson Field - 4 St & Jackson St,HB404,40.74313993965626,-74.04004096984863,311,"CREDITCARD, KEY",22,False,2,0,20,0,False,False,False,False,2022-02-05 21:06:11+00:00
501,4581,E Mosholu Pkwy & Van Cortlandt Ave E,8778.01,40.87656,-73.88366,71,"CREDITCARD, KEY",22,False,2,0,20,0,False,False,False,False,2022-02-05 09:40:48+00:00
502,4629,Webb Ave & W 190 St,8624.01,40.8660052,-73.904254892,71,"CREDITCARD, KEY",22,False,2,0,20,0,False,False,False,False,2022-02-05 19:06:11+00:00
503,4084,Sheridan Ave & E 168 St,8160.03,40.835334,-73.9154,71,"CREDITCARD, KEY",22,False,1,0,21,0,False,False,False,False,2022-02-05 20:48:21+00:00
504,4102,Grand Concourse & E 164 St,8057.02,40.829608,-73.921461,71,"CREDITCARD, KEY",22,False,1,0,21,0,False,False,False,False,2022-02-05 20:28:22+00:00
505,4144,Lafayette Ave & Hunts Point Ave,7883.06,40.816567,-73.888161,71,"CREDITCARD, KEY",22,False,1,0,21,0,False,False,False,False,2022-02-05 19:24:15+00:00
506,4423,57 St & 4 Ave,3093.07,40.642622,-74.016866,71,"CREDITCARD, KEY",22,False,1,0,21,0,False,False,False,False,2022-02-05 09:20:33+00:00
507,4556,Grand Ave & W Fordham Rd,8571.02,40.86288,-73.90316,71,"CREDITCARD, KEY",22,False,0,0,22,0,False,False,False,False,2022-02-05 16:32:51+00:00
508,4584,Weeks Ave & E 175 St,8340.05,40.846879,-73.907342,71,"CREDITCARD, KEY",22,False,0,0,22,0,False,False,False,False,2022-02-05 09:41:27+00:00
509,3256,Pier 40 - Hudson River Park,5696.03,40.7277140777778,-74.01129573583603,71,"CREDITCARD, KEY",23,False,20,3,0,0,False,False,False,False,2022-02-05 23:43:54+00:00
510,3337,Dwight St & Van Dyke St,3981.10,40.67363551341504,-74.01195555925369,71,"CREDITCARD, KEY",23,False,21,2,0,0,False,False,False,False,2022-02-05 19:29:38+00:00
511,3342,Pioneer St & Richards St,4128.08,40.6777748,-74.0094613,71,"CREDITCARD, KEY",23,False,22,1,0,0,False,False,False,False,2022-02-05 18:01:45+00:00
512,3876,Forest Ave & Summerfield St,4798.02,40.69922,-73.89795,71,"CREDITCARD, KEY",23,False,23,0,0,0,False,False,False,False,2022-02-05 08:19:50+00:00
513,4462,10 Ave & W 202 St,8543.01,40.861281970750994,-73.921417593956,71,"CREDITCARD, KEY",23,False,23,0,0,0,False,False,False,False,2022-02-05 09:20:33+00:00
514,4465,Seaman Ave & Isham St,8665.02,40.86989866194045,-73.92076313495636,71,"CREDITCARD, KEY",23,False,23,0,0,0,False,False,False,False,2022-02-05 09:20:34+00:00
515,3551,3 Ave & E 112 St,7543.15,40.795508,-73.941606,71,"CREDITCARD, KEY",23,False,21,1,1,0,False,False,False,False,2022-02-05 22:57:30+00:00
516,3609,Vernon Blvd & 31 Ave,7003.06,40.7692475,-73.9354504,71,"CREDITCARD, KEY",23,False,22,0,1,0,False,False,False,False,2022-02-05 23:52:39+00:00
517,3760,Willoughby Ave & Wyckoff Ave,5010.02,40.705614,-73.92153,71,"CREDITCARD, KEY",23,False,22,0,1,0,False,False,False,False,2022-02-05 23:19:32+00:00
518,4291,20 Ave & 48 St,7066.01,40.772899,-73.896849,71,"CREDITCARD, KEY",23,False,21,1,1,0,False,False,False,False,2022-02-05 21:16:16+00:00
519,3884,Centre St & Seneca Ave,4837.03,40.69969,-73.9022,71,"CREDITCARD, KEY",23,False,20,1,2,0,False,False,False,False,2022-02-05 18:07:35+00:00
520,3972,E 158 St & Melrose Ave,7957.11,40.822215,-73.914688,71,"CREDITCARD, KEY",23,False,21,0,2,0,False,False,False,False,2022-02-05 21:15:56+00:00
521,4550,Webster Ave & Ford St,8472.08,40.85556,-73.89615,71,"CREDITCARD, KEY",23,False,21,0,2,0,False,False,False,False,2022-02-05 23:58:34+00:00
522,4574,Bailey Ave & W 193 St,8676.01,40.87069,-73.90678,71,"CREDITCARD, KEY",23,False,21,0,2,0,False,False,False,False,2022-02-05 09:40:48+00:00
523,4646,Grand Concourse & E 144 St,7845.10,40.81687039466032,-73.92798498272896,71,"CREDITCARD, KEY",23,False,21,0,2,0,False,False,False,False,2022-02-05 23:14:36+00:00
524,3497,Pleasant Ave & E 116 St,7450.05,40.7949879,-73.9333349,71,"CREDITCARD, KEY",23,False,20,0,3,0,False,False,False,False,2022-02-05 23:55:13+00:00
525,3774,Knickerbocker Ave & George St,4979.07,40.704425,-73.92836,71,"CREDITCARD, KEY",23,False,20,0,3,0,False,False,False,False,2022-02-05 23:31:20+00:00
526,3777,Stockholm St & Wilson Ave,4824.03,40.699304,-73.923044,71,"CREDITCARD, KEY",23,False,19,1,3,0,False,False,False,False,2022-02-05 23:33:05+00:00
527,229,Great Jones St,5636.11,40.72743423,-73.99379025,71,"CREDITCARD, KEY",23,False,17,2,4,0,False,False,False,False,2022-02-05 23:46:14+00:00
528,3315,Henry St & Degraw St,4380.08,40.6847514,-73.99917254,71,"CREDITCARD, KEY",23,False,17,2,4,0,False,False,False,False,2022-02-05 23:51:26+00:00
529,3769,White St & Johnson Ave,5099.03,40.707174,-73.93581,71,"CREDITCARD, KEY",23,False,18,1,4,0,False,False,False,False,2022-02-05 22:41:16+00:00
530,4358,Ft. Hamilton Pkwy & E 5 St,3240.15,40.649037,-73.97673,71,"CREDITCARD, KEY",23,False,19,0,4,0,False,False,False,False,2022-02-05 23:31:47+00:00
531,3577,34 Ave & 21 St,6798.01,40.7628138,-73.9342862,71,"CREDITCARD, KEY",23,False,15,3,5,0,False,False,False,False,2022-02-05 23:50:38+00:00
532,3757,Stagg St & Morgan Ave,5170.01,40.710681,-73.93372,71,"CREDITCARD, KEY",23,False,17,1,5,0,False,False,False,False,2022-02-05 09:02:11+00:00
533,3931,Morris Ave & E 142 St,7821.01,40.814469,-73.924963,71,"CREDITCARD, KEY",23,False,18,0,5,0,False,False,False,False,2022-02-05 20:23:17+00:00
534,3956,St. Ann's Ave & E 144 St,7755.03,40.811112,-73.914932,71,"CREDITCARD, KEY",23,False,18,0,5,0,False,False,False,False,2022-02-05 17:50:19+00:00
535,4378,Church Ave & Story St,3007.05,40.642031,-73.981073,71,"CREDITCARD, KEY",23,False,17,0,6,0,False,False,False,False,2022-02-05 09:20:33+00:00
536,4379,34 St & 4 Ave,3492.04,40.655278,-74.003101,71,"CREDITCARD, KEY",23,False,17,0,6,0,False,False,False,False,2022-02-05 23:52:45+00:00
537,343,Clinton Ave & Flushing Ave,4762.04,40.69794,-73.96986848,71,"CREDITCARD, KEY",23,False,15,1,7,0,False,False,False,False,2022-02-05 23:31:03+00:00
538,3056,Kosciuszko St & Nostrand Ave,4519.04,40.69072549,-73.95133465,71,"CREDITCARD, KEY",23,False,14,2,7,0,False,False,False,False,2022-02-05 21:56:43+00:00
539,3125,45 Rd & 11 St,6319.01,40.74708586,-73.94977234,71,"CREDITCARD, KEY",23,False,15,1,7,0,False,False,False,False,2022-02-05 22:41:35+00:00
540,4571,University Ave & Macombs Rd,8344.09,40.8496401,-73.9161206,71,"CREDITCARD, KEY",23,False,16,0,7,0,False,False,False,False,2022-02-05 09:40:47+00:00
541,344,Monroe St & Bedford Ave,4368.05,40.6851443,-73.95380904,71,"CREDITCARD, KEY",23,False,15,0,8,0,False,False,False,False,2022-02-05 23:59:47+00:00
542,4309,18 St & 27 Ave,7062.07,40.772768286288304,-73.92743647098541,71,"CREDITCARD, KEY",23,False,15,0,8,0,False,False,False,False,2022-02-05 22:15:33+00:00
543,4672,48 Ave & 31 St,6151.05,40.74133,-73.93616,71,"CREDITCARD, KEY",23,False,15,0,8,0,False,False,False,False,2022-02-05 20:15:37+00:00
544,3937,E 135 St & St Ann's Ave,7687.05,40.805089,-73.918889,71,"CREDITCARD, KEY",23,False,14,0,9,0,False,False,False,False,2022-02-05 21:06:09+00:00
545,4258,34 Ave & 45 St,6596.10,40.754795,-73.917014,71,"CREDITCARD, KEY",23,False,13,1,9,0,False,False,False,False,2022-02-05 21:40:39+00:00
546,4292,Hazen St & 20 Ave,7032.06,40.772092,-73.895166,71,"CREDITCARD, KEY",23,False,13,1,9,0,False,False,False,False,2022-02-05 23:57:32+00:00
547,3524,19 St & 24 Ave,7186.15,40.7774552,-73.9225403,71,"CREDITCARD, KEY",23,False,13,0,10,0,False,False,False,False,2022-02-05 23:44:16+00:00
548,3622,E 128 St & Madison Ave,7735.23,40.80756,-73.939182,71,"CREDITCARD, KEY",23,False,13,0,10,0,False,False,False,False,2022-02-05 21:16:02+00:00
549,4326,Lenox Ave & W 140 St,7872.03,40.817245,-73.938787,71,"CREDITCARD, KEY",23,False,13,0,10,0,False,False,False,False,2022-02-05 22:39:41+00:00
550,4664,Prospect Ave & Greenwood Ave,3312.07,40.651745,-73.975988,71,"CREDITCARD, KEY",23,False,13,0,10,0,False,False,False,False,2022-02-05 23:05:38+00:00
551,3824,Van Sinderen Ave & Truxton St,4161.01,40.6786,-73.90369,71,"CREDITCARD, KEY",23,False,12,0,11,0,False,False,False,False,2022-02-05 17:46:01+00:00
552,4435,4 Ave & 17 St,3739.06,40.665507,-73.993037,71,"CREDITCARD, KEY",23,False,12,0,11,0,False,False,False,False,2022-02-05 22:50:56+00:00
553,4441,Broadway & W 192 St,8511.08,40.857994,-73.932173,71,"CREDITCARD, KEY",23,False,12,0,11,0,False,False,False,False,2022-02-05 19:57:28+00:00
554,4505,University Ave & Brandt Pl,8366.07,40.848354,-73.918389,71,"CREDITCARD, KEY",23,False,12,0,11,0,False,False,False,False,2022-02-05 21:33:17+00:00
555,157,Henry St & Atlantic Ave,4531.05,40.69089272,-73.99612349,71,"CREDITCARD, KEY",23,False,8,3,12,0,False,False,False,False,2022-02-05 23:46:47+00:00
556,241,DeKalb Ave & S Portland Ave,4546.04,40.68981035,-73.97493121,71,"CREDITCARD, KEY",23,False,10,0,13,0,False,False,False,False,2022-02-05 23:35:52+00:00
557,3768,Waterbury St & Stagg St,5099.02,40.71019,-73.93734,71,"CREDITCARD, KEY",23,False,10,0,13,0,False,False,False,False,2022-02-05 23:17:40+00:00
558,3814,E 56 St & Madison Ave,6732.01,40.761573,-73.972628,71,"CREDITCARD, KEY",23,False,10,0,13,0,False,False,False,False,2022-02-05 23:40:50+00:00
559,3999,Adam Clayton Powell Blvd & W 138 St,7855.03,40.81695971032464,-73.9422959089279,71,"CREDITCARD, KEY",23,False,9,1,13,0,False,False,False,False,2022-02-05 23:50:29+00:00
560,4064,Southern Blvd & E 142 St,7719.13,40.807347437082,-73.90809774398804,71,"CREDITCARD, KEY",23,False,10,0,13,0,False,False,False,False,2022-02-05 18:40:34+00:00
561,4422,44 St & 3 Ave,3315.05,40.651173,-74.011405,71,"CREDITCARD, KEY",23,False,10,0,13,0,False,False,False,False,2022-02-05 09:20:32+00:00
562,356,Bialystoker Pl & Delancey St,5335.03,40.71622644,-73.98261206,71,"CREDITCARD, KEY",23,False,9,0,14,0,False,False,False,False,2022-02-05 23:55:52+00:00
563,3064,Myrtle Ave & Lewis Ave,4729.01,40.69681963,-73.93756926,71,"CREDITCARD, KEY",23,False,8,1,14,0,False,False,False,False,2022-02-05 23:47:43+00:00
564,3776,Central Ave & Starr Street,4792.03,40.700003,-73.92834,71,"CREDITCARD, KEY",23,False,7,2,14,0,False,False,False,False,2022-02-05 23:52:57+00:00
565,3958,Willis Ave & E 143 St,7798.02,40.812299,-73.92037,71,"CREDITCARD, KEY",23,False,9,0,14,0,False,False,False,False,2022-02-05 21:02:32+00:00
566,3398,Smith St & 9 St,4077.04,40.6746957,-73.99785768,71,"CREDITCARD, KEY",23,False,7,1,15,0,False,False,False,False,2022-02-05 23:36:11+00:00
567,3949,Brook Ave & E 138 St,7707.08,40.807408,-73.91924,71,"CREDITCARD, KEY",23,False,0,8,15,0,False,False,False,False,2022-02-05 20:21:06+00:00
568,4029,Courtlandt Ave & E 149 St,7840.05,40.816402,-73.919549,71,"CREDITCARD, KEY",23,False,7,1,15,0,False,False,False,False,2022-02-05 15:48:59+00:00
569,4136,Washington Ave & E 163 St,7995.04,40.824,-73.91089,71,"CREDITCARD, KEY",23,False,7,1,15,0,False,False,False,False,2022-02-05 22:30:39+00:00
570,4266,50 St & 30 Ave,6735.03,40.760083,-73.907107,71,"CREDITCARD, KEY",23,False,8,0,15,0,False,False,False,False,2022-02-05 21:56:05+00:00
571,4613,Creston Ave & E 181 St,8456.02,40.8549,-73.90281,71,"CREDITCARD, KEY",23,False,8,0,15,0,False,False,False,False,2022-02-05 19:53:35+00:00
572,419,Carlton Ave & Park Ave,4732.04,40.69580705,-73.97355569,71,"CREDITCARD, KEY",23,False,6,1,16,0,False,False,False,False,2022-02-05 23:28:21+00:00
573,3726,Center Blvd & 51 Ave,6179.07,40.74336608027021,-73.95960688591003,71,"CREDITCARD, KEY",23,False,7,0,16,0,False,False,False,False,2022-02-05 22:06:52+00:00
574,3983,Westchester Ave & E 156 St,7891.06,40.817802,-73.905203,71,"CREDITCARD, KEY",23,False,7,0,16,0,False,False,False,False,2022-02-05 23:41:11+00:00
575,4030,Courtlandt Ave & E 157 St,7979.01,40.822267,-73.916792,71,"CREDITCARD, KEY",23,False,7,0,16,0,False,False,False,False,2022-02-05 13:46:29+00:00
576,4644,51 St & Hobart St,6662.09,40.75767234025041,-73.90769943594933,71,"CREDITCARD, KEY",23,False,7,0,16,0,False,False,False,False,2022-02-05 21:46:29+00:00
577,3055,Greene Ave & Nostrand Ave,4519.02,40.6883337,-73.950916,71,"CREDITCARD, KEY",23,False,6,0,17,0,False,False,False,False,2022-02-05 23:57:11+00:00
578,3614,Crescent St & 30 Ave,6958.06,40.768692,-73.9249574,71,"CREDITCARD, KEY",23,False,4,2,17,0,False,False,False,False,2022-02-05 22:30:30+00:00
579,3062,Myrtle Ave & Marcy Ave,4707.03,40.69539817,-73.94954908,71,"CREDITCARD, KEY",23,False,5,0,18,0,False,False,False,False,2022-02-05 23:28:40+00:00
580,3749,Lexington Ave & E 36 St,6313.10,40.7475739589548,-73.9788007736206,71,"CREDITCARD, KEY",23,False,4,1,18,0,False,False,False,False,2022-02-05 23:58:38+00:00
581,4262,38 St & Northern Blvd,6486.07,40.752372,-73.925384,71,"CREDITCARD, KEY",23,False,4,1,18,0,False,False,False,False,2022-02-05 23:26:16+00:00
582,4637,Decatur Ave & Oliver Pl,8631.03,40.867,-73.8857764,71,"CREDITCARD, KEY",23,False,5,0,18,0,False,False,False,False,2022-02-05 09:40:49+00:00
583,258,DeKalb Ave & Vanderbilt Ave,4461.04,40.68940747,-73.96885458,71,"CREDITCARD, KEY",23,False,4,0,19,0,False,False,False,False,2022-02-05 23:44:51+00:00
584,443,Bedford Ave & S 9 St,5093.01,40.70853074,-73.96408963,71,"CREDITCARD, KEY",23,False,3,1,19,0,False,False,False,False,2022-02-05 21:42:30+00:00
585,3052,Lewis Ave & Madison St,4425.02,40.686312,-73.935775,71,"CREDITCARD, KEY",23,False,2,2,19,0,False,False,False,False,2022-02-05 23:58:59+00:00
586,3179,Park Ave & Marcus Garvey Blvd,4768.02,40.698617,-73.941342,71,"CREDITCARD, KEY",23,False,4,0,19,0,False,False,False,False,2022-02-05 23:46:57+00:00
587,3343,W 107 St & Columbus Ave,7619.05,40.7997568,-73.9621128676,71,"CREDITCARD, KEY",23,False,2,2,19,0,False,False,False,False,2022-02-05 23:57:20+00:00
588,3361,Carroll St & 6 Ave,4019.06,40.6740886,-73.9787282,71,"CREDITCARD, KEY",23,False,4,0,19,0,False,False,False,False,2022-02-05 22:43:41+00:00
589,3405,5 St & 6 Ave,3874.01,40.6704836,-73.98208968,71,"CREDITCARD, KEY",23,False,4,0,19,0,False,False,False,False,2022-02-05 23:55:41+00:00
590,3843,Myrtle Ave & Grove St,4816.05,40.69905,-73.91516,71,"CREDITCARD, KEY",23,False,4,0,19,0,False,False,False,False,2022-02-05 19:51:26+00:00
591,4256,25 Ave & 41 St,6943.07,40.767666,-73.910963,71,"CREDITCARD, KEY",23,False,3,1,19,0,False,False,False,False,2022-02-05 23:31:55+00:00
592,4389,47 St & 3 Ave,3243.02,40.649143,-74.012384,71,"CREDITCARD, KEY",23,False,4,0,19,0,False,False,False,False,2022-02-05 17:18:51+00:00
593,3053,Marcy Ave & Lafayette Ave,4476.03,40.6900815,-73.947915,71,"CREDITCARD, KEY",23,False,3,0,20,0,False,False,False,False,2022-02-05 23:43:47+00:00
594,3070,McKibbin St & Manhattan Ave,4996.08,40.70510918,-73.94407279,71,"CREDITCARD, KEY",23,False,3,0,20,0,False,False,False,False,2022-02-05 23:21:24+00:00
595,3306,10 St & 7 Ave,3762.08,40.6662078,-73.98199886,71,"CREDITCARD, KEY",23,False,0,3,20,0,False,False,False,False,2022-02-05 22:45:57+00:00
596,3602,31 Ave & 34 St,6819.15,40.763154,-73.920827,71,"CREDITCARD, KEY",23,False,2,1,20,0,False,False,False,False,2022-02-05 23:40:28+00:00
597,4060,Amsterdam Ave & W 172 St,8242.04,40.842173,-73.935111,71,"CREDITCARD, KEY",23,False,3,0,20,0,False,False,False,False,2022-02-05 23:00:14+00:00
598,4062,Amsterdam Ave & W 175 St,8278.05,40.844044,-73.933651,71,"CREDITCARD, KEY",23,False,3,0,20,0,False,False,False,False,2022-02-05 23:03:25+00:00
599,4274,35 St & 21 Ave,7170.04,40.776745,-73.906558,71,"CREDITCARD, KEY",23,False,3,0,20,0,False,False,False,False,2022-02-05 20:10:51+00:00
600,4319,31 Ave & 57 St,6621.06,40.757357,-73.904726,71,"CREDITCARD, KEY",23,False,3,0,20,0,False,False,False,False,2022-02-05 09:00:19+00:00
601,4410,41 St & 4 Ave,3347.03,40.651354,-74.007168,71,"CREDITCARD, KEY",23,False,3,0,20,0,False,False,False,False,2022-02-05 23:43:04+00:00
602,4453,Audubon Ave & Fort George Ave,8491.07,40.85715781391904,-73.92717361450195,71,"CREDITCARD, KEY",23,False,3,0,20,0,False,False,False,False,2022-02-05 23:58:39+00:00
603,3984,W 140 St & Riverside Dr,7981.27,40.824013,-73.954743,71,"CREDITCARD, KEY",23,False,2,0,21,0,False,False,False,False,2022-02-05 23:36:59+00:00
604,4012,W 148 St & Amsterdam Ave,8033.09,40.827075,-73.945909,71,"CREDITCARD, KEY",23,False,1,1,21,0,False,False,False,False,2022-02-05 22:24:19+00:00
605,4066,Audobon Ave & W 179 St,8316.02,40.847305,-73.933291,71,"CREDITCARD, KEY",23,False,2,0,21,0,False,False,False,False,2022-02-05 17:12:57+00:00
606,4260,43 St & 23 Ave,7009.06,40.769673,-73.906018,71,"CREDITCARD, KEY",23,False,2,0,21,0,False,False,False,False,2022-02-05 21:30:22+00:00
607,3574,Prospect Pl & Underhill Ave,4116.08,40.6769694,-73.96579,71,"CREDITCARD, KEY",23,False,0,1,22,0,False,False,False,False,2022-02-05 23:56:43+00:00
608,3716,40 Ave & Crescent St,6462.05,40.7535992020056,-73.93795609474182,71,"CREDITCARD, KEY",23,False,0,1,22,0,False,False,False,False,2022-02-05 20:23:51+00:00
609,3987,E 149 St & Jackson Ave,7812.01,40.813135,-73.909235,71,"CREDITCARD, KEY",23,False,1,0,22,0,False,False,False,False,2022-02-05 13:07:09+00:00
610,4057,Amsterdam Ave & W 167 St,8206.17,40.839443,-73.937044,71,"CREDITCARD, KEY",23,False,1,0,22,0,False,False,False,False,2022-02-05 21:26:44+00:00
611,4067,Amsterdam Ave & W 180 St,8353.02,40.847396,-73.931205,71,"CREDITCARD, KEY",23,False,1,0,22,0,False,False,False,False,2022-02-05 08:40:04+00:00
612,4074,Edgecombe Ave & W 167 St,8187.04,40.838191,-73.936085,71,"CREDITCARD, KEY",23,False,1,0,22,0,False,False,False,False,2022-02-05 20:10:12+00:00
613,4135,Westchester Ave & Longwood Ave,7909.07,40.819701,-73.901311,71,"CREDITCARD, KEY",23,False,1,0,22,0,False,False,False,False,2022-02-05 18:25:43+00:00
614,4263,30 Ave & 41 St,6812.06,40.763422,-73.914142,71,"CREDITCARD, KEY",23,False,1,0,22,0,False,False,False,False,2022-02-05 23:53:20+00:00
615,4573,Morris Ave & E 184 St,8550.04,40.86008,-73.90079,71,"CREDITCARD, KEY",23,False,1,0,22,0,False,False,False,False,2022-02-05 09:40:47+00:00
616,4582,Jerome Ave & E Mosholu Parkway S,8795.01,40.87935,-73.88534,71,"CREDITCARD, KEY",23,False,1,0,22,0,False,False,False,False,2022-02-05 22:37:41+00:00
617,3948,E 138 St & Cypress Ave,7669.10,40.805559,-73.914718,71,"CREDITCARD, KEY",23,False,0,0,23,0,False,False,False,False,2022-02-05 15:00:08+00:00
618,4008,Broadway & W 142 St,7981.16,40.824686,-73.951947,71,"CREDITCARD, KEY",23,False,0,0,23,0,False,False,False,False,2022-02-05 23:56:48+00:00
619,4027,St. Nicholas Ave & W 155 St,8085.05,40.830663,-73.941323,71,"CREDITCARD, KEY",23,False,0,0,23,0,False,False,False,False,2022-02-05 20:08:56+00:00
620,4179,Freeman St & Southern Blvd,8060.01,40.830051,-73.892103,71,"CREDITCARD, KEY",23,False,0,0,23,0,False,False,False,False,2022-02-05 09:00:18+00:00
621,4500,W Burnside Ave & University Ave,8425.01,40.853686,-73.912498,71,"CREDITCARD, KEY",23,False,0,0,23,0,False,False,False,False,2022-02-05 09:20:35+00:00
622,4547,19 St & 8 Ave,3547.04,40.658489,-73.985543,71,"CREDITCARD, KEY",23,False,0,0,23,0,False,False,False,False,2022-02-05 09:20:34+00:00
623,4572,Valentine Ave & E 183 St,8472.06,40.856987,-73.898237,71,"CREDITCARD, KEY",23,False,0,0,23,0,False,False,False,False,2022-02-05 07:39:18+00:00
624,4638,Bainbridge Ave & E 198 St,8649.03,40.8684871,-73.8884559781,71,"CREDITCARD, KEY",23,False,0,0,23,0,False,False,False,False,2022-02-05 09:40:49+00:00
625,3779,Hart St & Wyckoff Ave,4971.01,40.704876,-73.919911,71,"CREDITCARD, KEY",24,False,24,0,0,0,False,False,False,False,2022-02-05 15:09:59+00:00
626,4369,23 St & 3 Ave,3707.01,40.662611,-73.998623,71,"CREDITCARD, KEY",24,False,21,3,0,0,False,False,False,False,2022-02-05 09:00:21+00:00
627,4565,Bedford Park Blvd & Paul Ave,8752.01,40.87444,-73.89186,71,"CREDITCARD, KEY",24,False,0,16,0,8,False,False,False,False,2022-02-05 23:59:39+00:00
628,3996,Lexington Ave & E 128 St,7716.19,40.806414,-73.936085,71,"CREDITCARD, KEY",24,False,23,0,1,0,False,False,False,False,2022-02-05 16:45:25+00:00
629,4069,Cabrini Blvd & W 177 St,8358.10,40.848282,-73.941343,71,"CREDITCARD, KEY",24,False,23,0,1,0,False,False,False,False,2022-02-05 23:04:55+00:00
630,3317,10 St & 5 Ave,3842.08,40.6686273,-73.98700053,71,"CREDITCARD, KEY",24,False,21,1,2,0,False,False,False,False,2022-02-05 23:20:51+00:00
631,3399,7 St & 3 Ave,3996.01,40.67260298150126,-73.98983001708984,71,"CREDITCARD, KEY",24,False,20,2,2,0,False,False,False,False,2022-02-05 23:52:18+00:00
632,3816,Metropolitan Ave & Vandervoort Ave,5241.02,40.71429,-73.93323,71,"CREDITCARD, KEY",24,False,22,0,2,0,False,False,False,False,2022-02-05 22:17:31+00:00
633,3676,Van Brunt St & Van Dyke St,4095.10,40.6758329439129,-74.01472628116608,71,"CREDITCARD, KEY",24,False,21,0,3,0,False,False,False,False,2022-02-05 23:37:19+00:00
634,4488,4 Ave & 26 St,3596.04,40.660079,-73.998633,71,"CREDITCARD, KEY",24,False,20,1,3,0,False,False,False,False,2022-02-05 22:31:26+00:00
635,3491,E 118 St & 1 Ave,7596.10,40.79747,-73.93504,71,"CREDITCARD, KEY",24,False,19,1,4,0,False,False,False,False,2022-02-05 23:07:19+00:00
636,4666,Coffey St & Ferris St,4137.14,40.67818387977647,-74.0170168876648,71,"CREDITCARD, KEY",24,False,20,0,4,0,False,False,False,False,2022-02-05 22:17:24+00:00
637,2008,Little West St & 1 Pl,5001.08,40.70569254,-74.01677685,71,"CREDITCARD, KEY",24,False,18,1,5,0,False,False,False,False,2022-02-05 23:44:57+00:00
638,4023,Adam Clayton Powell Blvd & W 141 St,7893.05,40.819241,-73.941057,71,"CREDITCARD, KEY",24,False,18,1,5,0,False,False,False,False,2022-02-05 23:32:14+00:00
639,3400,E 110 St & Madison Ave,7587.14,40.7961535,-73.94782145,71,"CREDITCARD, KEY",24,False,17,1,6,0,False,False,False,False,2022-02-05 23:27:15+00:00
640,4698,E 4 St & Ave B,5515.08,40.72334683218016,-73.98265913128853,71,"CREDITCARD, KEY",24,False,15,3,6,0,False,False,False,False,2022-02-05 23:49:20+00:00
641,295,Pike St & E Broadway,5270.05,40.71406667,-73.99293911,71,"CREDITCARD, KEY",24,False,15,2,7,0,False,False,False,False,2022-02-05 23:55:11+00:00
642,3804,Front St & Jay St,4895.03,40.702461,-73.986842,71,"CREDITCARD, KEY",24,False,17,0,7,0,False,False,False,False,2022-02-05 22:53:49+00:00
643,4554,Cedar Ave & W Fordham Rd,8575.02,40.86156,-73.91219,71,"CREDITCARD, KEY",24,False,16,1,7,0,False,False,False,False,2022-02-05 18:28:24+00:00
644,4002,W 144 St & Adam Clayton Powell Blvd,7932.10,40.820877,-73.939249,71,"CREDITCARD, KEY",24,False,12,3,9,0,False,False,False,False,2022-02-05 23:54:43+00:00
645,4464,9 Ave & W 206 St,8594.02,40.86308937813274,-73.9175833761692,71,"CREDITCARD, KEY",24,False,15,0,9,0,False,False,False,False,2022-02-05 20:03:09+00:00
646,437,Macon St & Nostrand Ave,4214.03,40.6809833854,-73.9500479759,71,"CREDITCARD, KEY",24,False,12,2,10,0,False,False,False,False,2022-02-05 23:31:45+00:00
647,3072,Leonard St & Boerum St,5036.06,40.70583339,-73.94644578,71,"CREDITCARD, KEY",24,False,13,1,10,0,False,False,False,False,2022-02-05 23:43:38+00:00
648,4510,University Ave & W Burnside Ave,8462.09,40.85501,-73.910751,71,"CREDITCARD, KEY",24,False,13,0,11,0,False,False,False,False,2022-02-05 18:29:32+00:00
649,4430,63 St & 5 Ave,2872.02,40.63766,-74.01782,71,"CREDITCARD, KEY",24,False,11,0,13,0,False,False,False,False,2022-02-05 17:53:30+00:00
650,4518,11 St & Washington St,HB502,40.74998490907138,-74.02715027332306,311,"CREDITCARD, KEY",24,False,11,0,13,0,False,False,False,False,2022-02-05 23:32:09+00:00
651,4678,Riverside Dr & Broadway,8616.06,40.865364,-73.92791,71,"CREDITCARD, KEY",24,False,11,0,13,0,False,False,False,False,2022-02-05 23:05:20+00:00
652,4408,Windsor Pl & Howard Pl,3579.04,40.65949055893896,-73.98013919591904,71,"CREDITCARD, KEY",24,False,10,0,14,0,False,False,False,False,2022-02-05 23:18:15+00:00
653,3766,Sharon St & Olive St,5323.05,40.715353,-73.93856,71,"CREDITCARD, KEY",24,False,9,0,15,0,False,False,False,False,2022-02-05 21:54:01+00:00
654,3854,Morgan Ave & Maspeth Ave,5354.01,40.716657,-73.93637,71,"CREDITCARD, KEY",24,False,9,0,15,0,False,False,False,False,2022-02-05 22:55:05+00:00
655,4536,Hoboken Terminal - Hudson St & Hudson Pl,HB101,40.73593758446329,-74.03030455112457,311,"CREDITCARD, KEY",24,False,9,0,15,0,False,False,False,False,2022-02-05 23:48:41+00:00
656,3829,Central Ave & Decatur St,4432.10,40.6882,-73.90798,71,"CREDITCARD, KEY",24,False,8,0,16,0,False,False,False,False,2022-02-05 19:26:49+00:00
657,4001,Lenox Ave & W 146 St,7910.10,40.821111,-73.935971,71,"CREDITCARD, KEY",24,False,8,0,16,0,False,False,False,False,2022-02-05 23:38:28+00:00
658,4176,E 171 St & 3 Ave,8171.06,40.837119,-73.902185,71,"CREDITCARD, KEY",24,False,8,0,16,0,False,False,False,False,2022-02-05 22:27:27+00:00
659,4321,21 Ave & Crescent St,7284.01,40.780478,-73.912212,71,"CREDITCARD, KEY",24,False,6,2,16,0,False,False,False,False,2022-02-05 23:18:56+00:00
